Company Name,Executive First Name,Executive Last Name,Address,City,State,ZIP Code,Record Type,Longitude,Latitude,Primary NAICS Description,Primary SIC Description
Mental Health Svc-San Luis,Karen,Baylor,2178 Johnson Ave,San Luis Obispo,CA,93401,Verified,-120.646559,35.274597,Administration Of Public Health Programs,County Government-Public Health Programs
Merced County Mental Health,Trechann,Barber-Jacinto,3305 G St,Merced,CA,95340,Verified,-120.469674,37.323942,Administration Of Public Health Programs,County Government-Public Health Programs
Santa Clara County,Gary,Goodman,231 Grant Ave,Palo Alto,CA,94306,Verified,-122.141426,37.426734,Administration Of Public Health Programs,County Government-Public Health Programs
Turning Point Of Central Ca,Scott,Hollander,615 S Atwood St,Visalia,CA,93277,Verified,-119.34737,36.325215,Administration Of Public Health Programs,County Government-Public Health Programs
Transitions-Mental Health Assn,Tammy,Franck,215 Inger Dr,Santa Maria,CA,93454,Verified,-120.434515,34.926638,All Other Misc Ambulatory Health Care Services,Health & Welfare Agencies
Advances & Mental Health,Yvette,Stepanoff,18672 Florida St,Huntington Beach,CA,92648,Verified,-117.990428,33.691137,All Other Misc Ambulatory Health Care Services,Health Services
American River Residential Svc,Nancy,Soncrant,4741 Engle Rd,Carmichael,CA,95608,Verified,-121.354175,38.632932,All Other Misc Ambulatory Health Care Services,Health Services
Angel Of Faith Non Profit Org,Luis,Cruz,4996 LA Sierra Ave,Riverside,CA,92505,Verified,-117.490339,33.921038,All Other Misc Ambulatory Health Care Services,Health Services
Axis Community Health Ctr Dui,Jennifer,Penney,6666 Owens Dr,Pleasanton,CA,94588,Verified,-121.91015,37.698644,All Other Misc Ambulatory Health Care Services,Health Services
Beacon Health Strategies,,,1055 W 7th St # 10,Los Angeles,CA,90017,Verified,-118.263341,34.050898,All Other Misc Ambulatory Health Care Services,Health Services
Behavioral Health Works,Rob,Douk,1301 E Orangewood Ave,Anaheim,CA,92805,Verified,-117.892644,33.796719,All Other Misc Ambulatory Health Care Services,Health Services
BHR Corporate Office,Neisha,Becton,5674 Stoneridge Dr # 116,Pleasanton,CA,94588,Verified,-121.887526,37.690344,All Other Misc Ambulatory Health Care Services,Health Services
Child Guidance Ctr-Family Ctr,Lori,Pack,6301 Beach Blvd # 245,Buena Park,CA,90621,Verified,-117.998783,33.868885,All Other Misc Ambulatory Health Care Services,Health Services
Clearwater Management Inc,,,5300 Santa Monica Blvd # 205,Los Angeles,CA,90029,Verified,-118.305471,34.090385,All Other Misc Ambulatory Health Care Services,Health Services
Coalition Of Mental Health Pro,Sandra,Cox,9219 S Broadway,Los Angeles,CA,90003,Verified,-118.27865,33.952278,All Other Misc Ambulatory Health Care Services,Health Services
Community Health Ctr,Sue,Feliciano,425 W Central Ave # 201,Lompoc,CA,93436,Verified,-120.46163,34.661468,All Other Misc Ambulatory Health Care Services,Health Services
Courtyard Community,Robert,Pitts,2370 Buhne St,Eureka,CA,95501,Verified,-124.141477,40.785402,All Other Misc Ambulatory Health Care Services,Health Services
Crestwood,Fidel,Garabay,153 N U St,Fresno,CA,93701,Verified,-119.780603,36.744432,All Other Misc Ambulatory Health Care Services,Health Services
Crestwood Behavioral Health,Pamela,Norris,295 Pine Breeze Dr,Angwin,CA,94508,Verified,-122.456759,38.561266,All Other Misc Ambulatory Health Care Services,Health Services
Crestwood Behavioral Health,Cindy,Robins,1425 Fruitdale Ave,San Jose,CA,95128,Verified,-121.9148,37.310997,All Other Misc Ambulatory Health Care Services,Health Services
Crestwood Behavioral Health,John,Suggs,7590 Shoreline Dr,Stockton,CA,95219,Verified,-121.359421,38.019609,All Other Misc Ambulatory Health Care Services,Health Services
Crestwood Center,Cindy,Metarasl,2600 Stockton Blvd,Sacramento,CA,95817,Verified,-121.456408,38.551958,All Other Misc Ambulatory Health Care Services,Health Services
Crestwood Healing Ctr,Sylvia D,Ward,550 Patterson Blvd,Pleasant Hill,CA,94523,Verified,-122.071999,37.934708,All Other Misc Ambulatory Health Care Services,Health Services
Crestwood Manor,Laurie,Blaufus,1400 Celeste Dr,Modesto,CA,95355,Verified,-120.972559,37.672261,All Other Misc Ambulatory Health Care Services,Health Services
Crestwood Manor,Henry,Yrlas,1130 Monaco Ct,Stockton,CA,95207,Verified,-121.319367,37.988558,All Other Misc Ambulatory Health Care Services,Health Services
Crestwood Psychiatric Health,Robin,Goodell,6700 Eucalyptus Dr # A,Bakersfield,CA,93306,Verified,-118.929712,35.365757,All Other Misc Ambulatory Health Care Services,Health Services
Crestwood Treatment Ctr,Janet,Trimble,2171 Mowry Ave,Fremont,CA,94538,Verified,-121.982726,37.558625,All Other Misc Ambulatory Health Care Services,Health Services
Dhmg Behavioral Health,,,1792 Tribute Rd,Sacramento,CA,95815,Verified,-121.445951,38.598239,All Other Misc Ambulatory Health Care Services,Health Services
El Hogar Community Svc,Ken,Eskow,3780 Rosin Ct # 110,Sacramento,CA,95834,Verified,-121.473108,38.636259,All Other Misc Ambulatory Health Care Services,Health Services
Enki Health & Research System,Tusia,Steidle,2130 E 1st St,Los Angeles,CA,90033,Verified,-118.212565,34.044358,All Other Misc Ambulatory Health Care Services,Health Services
Enki Health & Research Systs,Hsiang,Hsyeh,560 S St Louis St,Los Angeles,CA,90033,Verified,-118.216937,34.039103,All Other Misc Ambulatory Health Care Services,Health Services
Estudysite Research Excellence,Marci,Smith,3998 Vista Way # 102,Oceanside,CA,92056,Verified,-117.292601,33.184247,All Other Misc Ambulatory Health Care Services,Health Services
Gardner Health Ctr,Efrain,Coria,195 E Virginia St,San Jose,CA,95112,Verified,-121.877788,37.32611,All Other Misc Ambulatory Health Care Services,Health Services
Health Services Cal Dept,Karl,Verick,727 Cedar St,Garberville,CA,95542,Verified,-123.792693,40.101653,All Other Misc Ambulatory Health Care Services,Health Services
Hoag Neuro Behavioral Health,Marshall,Moncrief,1 Hoag Dr,Newport Beach,CA,92663,Verified,-117.929173,33.624649,All Other Misc Ambulatory Health Care Services,Health Services
Idalia Razo Mft,Vivian,Caldiron,3300 E South St # 203,Lakewood,CA,90805,Verified,-118.153635,33.859494,All Other Misc Ambulatory Health Care Services,Health Services
Kaiser Permanente Behavioral,,,44444 20th St W,Lancaster,CA,93534,Verified,-118.165035,34.69057,All Other Misc Ambulatory Health Care Services,Health Services
Kaiser Permanente Cyn Crest,,,5225 Canyon Crest Dr # 100,Riverside,CA,92507,Verified,-117.331262,33.956095,All Other Misc Ambulatory Health Care Services,Health Services
Kaiser Permanente Main Street,Ann,LA Fever,23621 Main St,Carson,CA,90745,Verified,-118.2762,33.810612,All Other Misc Ambulatory Health Care Services,Health Services
Kaiser Permanente West Covina,Frances,Gonzalez,1511 W Garvey Ave N,West Covina,CA,91790,Verified,-117.938412,34.073066,All Other Misc Ambulatory Health Care Services,Health Services
LA Child Guidance Clinic,Richard,Saneda,4401 Crenshaw Blvd # 300,Los Angeles,CA,90043,Verified,-118.332148,34.003215,All Other Misc Ambulatory Health Care Services,Health Services
Mental Health Assn-Orange,Jennifer,Lanston,3540 Howard Way,Costa Mesa,CA,92626,Verified,-117.927001,33.698258,All Other Misc Ambulatory Health Care Services,Health Services
Mental Health Client Actio,Linda,Kiva,1051 Cayuga St,Santa Cruz,CA,95062,Verified,-122.01186,36.978993,All Other Misc Ambulatory Health Care Services,Health Services
Mental Health Los Angeles,Katty,Callendar,240 E 20th St,Long Beach,CA,90806,Verified,-118.1899,33.793298,All Other Misc Ambulatory Health Care Services,Health Services
Mental Health Svc,Rebecca,Blumling,1965 Live Oak Blvd,Yuba City,CA,95991,Verified,-121.618919,39.155804,All Other Misc Ambulatory Health Care Services,Health Services
Mental Health Systems,Maryann,Nycum,560 Greenbrier Dr # D,Oceanside,CA,92054,Verified,-117.355108,33.195308,All Other Misc Ambulatory Health Care Services,Health Services
Mental Health-Autism Health,,,346 Rheem Blvd,Moraga,CA,94556,Verified,-122.129671,37.860866,All Other Misc Ambulatory Health Care Services,Health Services
Mind Health Institute Pasdena,,,200 E Del Mar Blvd,Pasadena,CA,91105,Verified,-118.146358,34.140449,All Other Misc Ambulatory Health Care Services,Health Services
Mindful Health LA,Andrena,Mc Groarty,5855 E Naples Plz # 307,Long Beach,CA,90803,Verified,-118.119448,33.755979,All Other Misc Ambulatory Health Care Services,Health Services
Momentum For Mental Health,Melinda,Golden,438 N White Rd,San Jose,CA,95127,Verified,-121.83762,37.377832,All Other Misc Ambulatory Health Care Services,Health Services
Momentum Health,,,125 Lowell Ave,Palo Alto,CA,94301,Verified,-122.148906,37.434696,All Other Misc Ambulatory Health Care Services,Health Services
North American Mental Health,,,255 W Court St,Woodland,CA,95695,Verified,-121.795282,38.678469,All Other Misc Ambulatory Health Care Services,Health Services
North County Health Svc,Irma,Cota,150 Valpreda Rd,San Marcos,CA,92069,Verified,-117.157072,33.140205,All Other Misc Ambulatory Health Care Services,Health Services
Our House,Gail,Mc Donald,2201 Tuolumne St,Vallejo,CA,94589,Verified,-122.241202,38.130739,All Other Misc Ambulatory Health Care Services,Health Services
Pasadena Family Therapy,Morella,Hammer,15720 Ventura Blvd # 504,Encino,CA,91436,Verified,-118.475778,34.155262,All Other Misc Ambulatory Health Care Services,Health Services
Professional Mental Health Inc,,,,Santa Clarita,CA,91355,Verified,-118.570671,34.416652,All Other Misc Ambulatory Health Care Services,Health Services
Psychiatric Health Systems,,,4679 Vista St,San Diego,CA,92116,Verified,-117.102978,32.762882,All Other Misc Ambulatory Health Care Services,Health Services
Public Health Svc San Joaquin,Bill,Mitchell,300 W Oak St,Lodi,CA,95240,Verified,-121.276668,38.132756,All Other Misc Ambulatory Health Care Services,Health Services
San Pedro Mental Health,Kathrine,Lundy,150 W 7th St,San Pedro,CA,90731,Verified,-118.281013,33.738035,All Other Misc Ambulatory Health Care Services,Health Services
South County Mental Health,Talisha,Racy,802 Brewster Ave # 2,Redwood City,CA,94063,Verified,-122.234231,37.48896,All Other Misc Ambulatory Health Care Services,Health Services
St Andrews Healthcare,Nathaniel,Chivi,2300 W Washington Blvd,Los Angeles,CA,90018,Verified,-118.311783,34.039603,All Other Misc Ambulatory Health Care Services,Health Services
Tivity Health,,,34 Executive Park # 212,Irvine,CA,92614,Verified,-117.859449,33.684749,All Other Misc Ambulatory Health Care Services,Health Services
Tri-City Mental Health Ctr,,,1403 N Garey Ave,Pomona,CA,91767,Verified,-117.752654,34.071693,All Other Misc Ambulatory Health Care Services,Health Services
Tulare County Children's,,,138 S L St,Dinuba,CA,93618,Verified,-119.389315,36.540679,All Other Misc Ambulatory Health Care Services,Health Services
Villa Stanley Inc,Jay,Plotzker,335 N Stanley Ave,Los Angeles,CA,90036,Verified,-118.356519,34.077148,All Other Misc Ambulatory Health Care Services,Health Services
Alohypnotherapy,Ramtin,Pourvasei,18607 Ventura Blvd # 310,Tarzana,CA,91356,Verified,-118.538715,34.17022,All Other Misc Ambulatory Health Care Services,Hypnotherapy
Healing Through Hypnotherapy,Laura A,Donohue,8375 Brentwood Blvd # D,Brentwood,CA,94513,Verified,-121.696425,37.932115,All Other Misc Ambulatory Health Care Services,Hypnotherapy
Integrative Hypnotherapy,Kathy,Stowell,555 Soquel Ave # 260,Santa Cruz,CA,95062,Verified,-122.017597,36.976495,All Other Misc Ambulatory Health Care Services,Hypnotherapy
C D S Facility Svc,Darrell,Mclaughlin,2405 S Stockton St # 3,Lodi,CA,95240,Verified,-121.269976,38.104021,All Other Misc Ambulatory Health Care Services,Medical Emergency Training
County Of Los Angeles,Michael,Mills,4024 Durfee Ave # 225,El Monte,CA,91732,Verified,-118.005456,34.073162,"All Other Professional, Scientific/Technical Svcs",Services NEC
County Of Merced Mental Health,Yvonnia,Brown,1944 M St,Merced,CA,95340,Verified,-120.483002,37.304572,"All Other Professional, Scientific/Technical Svcs",Services NEC
Deltrina Johnson,Deltrina,Johnson,927 Warfield Ave,Oakland,CA,94610,Verified,-122.242627,37.814981,"All Other Professional, Scientific/Technical Svcs",Services NEC
Family Service Agency,Phillip A,Jones,101 S B St # A,Lompoc,CA,93436,Verified,-120.450485,34.638499,"All Other Professional, Scientific/Technical Svcs",Services NEC
Special Service For Groups,,,470 E 3rd St # D,Los Angeles,CA,90013,Verified,-118.240596,34.046219,"All Other Professional, Scientific/Technical Svcs",Services NEC
Toi Ya Be Family Svc,Sheila,Turner,52 N Tu Su Ln,Bishop,CA,93514,Verified,-118.418319,37.362123,"All Other Professional, Scientific/Technical Svcs",Services NEC
Applied Psychology Systems,Penelope,Mc Almond-Ross,313 Kendal St,Vacaville,CA,95688,Verified,-121.989324,38.357774,Child & Youth Services,Counseling Services
Asian American Recovery Svc,Sara,Barnes,2166 Hayes St # 303,San Francisco,CA,94117,Verified,-122.452371,37.773193,Child & Youth Services,Counseling Services
Asj Family Counseling Ctr,,,23632 Calabasas Rd # 103,Calabasas,CA,91302,Verified,-118.642251,34.156156,Child & Youth Services,Counseling Services
Bay Area Trauma Counseling,,,801 Portola Dr # 207,San Francisco,CA,94127,Verified,-122.454095,37.743615,Child & Youth Services,Counseling Services
"Calvi, Barbara",Barbara,Calvi,22231 Mulholland Hwy # 202,Calabasas,CA,91302,Verified,-118.613067,34.14834,Child & Youth Services,Counseling Services
Cameron Park Counseling Ctr,Rose-Marie,Nieto,3330 Heights Dr # 120,Cameron Park,CA,95682,Verified,-120.982839,38.660744,Child & Youth Services,Counseling Services
Center For Behavior Medicine,Michael,Harris,17451 Bastanchury Rd,Yorba Linda,CA,92886,Verified,-117.829957,33.899827,Child & Youth Services,Counseling Services
Central Counseling Svc,Sherry,Pope,6840 Indiana Ave # 275,Riverside,CA,92506,Verified,-117.392049,33.94188,Child & Youth Services,Counseling Services
Clearwater Counseling-Asssmnts,,,345 38th St,Oakland,CA,94609,Verified,-122.258541,37.826066,Child & Youth Services,Counseling Services
Community Family Guidance Ctr,Jessica G,Saldivar,10929 South St # 208b,Cerritos,CA,90703,Verified,-118.101143,33.858406,Child & Youth Services,Counseling Services
Comprehensive Counseling Svc,Rudy,Garza,3636 N 1st St # 141,Fresno,CA,93726,Verified,-119.771529,36.783138,Child & Youth Services,Counseling Services
Didi Hirsch Cmnty Mental Hlth,Oscar,Gonzalez,672 S LA Fayette Park Pl # 6,Los Angeles,CA,90057,Verified,-118.283768,34.060493,Child & Youth Services,Counseling Services
Dr Barbara Gaetano Ph D,Barbara,Gaetano,5440 Morehouse Dr # 3800,San Diego,CA,92121,Verified,-117.201096,32.894144,Child & Youth Services,Counseling Services
Holistic Counseling Systems,Lynda,Latta,11429 Hickory Ave,Hesperia,CA,92345,Verified,-117.323133,34.45827,Child & Youth Services,Counseling Services
Jason Esswein Counseling Svc,Jason,Esswein,3425 S Bascom Ave # 250,Campbell,CA,95008,Verified,-121.944493,37.263224,Child & Youth Services,Counseling Services
Linder Psychiatric Group Inc,Renae,Linder,970 Reserve Dr # E,Roseville,CA,95678,Verified,-121.270027,38.765313,Child & Youth Services,Counseling Services
Mental Health Svc,Arnold,Nerenberg,7238 Painter Ave,Whittier,CA,90602,Verified,-118.032422,33.976046,Child & Youth Services,Counseling Services
Mindful Solutions Mental Hlth,Lorena,Ybanez,7365 Carnelian St # 217-D,Rancho Cucamonga,CA,91730,Verified,-117.614861,34.120521,Child & Youth Services,Counseling Services
Sierra Mental Wellness Group,Jon,Kershner,560 Wall St # D,Auburn,CA,95603,Verified,-121.075077,38.90937,Child & Youth Services,Counseling Services
Sierra Mental Wellness Group,Jon,Kerschner,333 Sunrise Ave # 701,Roseville,CA,95661,Verified,-121.270389,38.740865,Child & Youth Services,Counseling Services
Youth Services,Eileen,Mccormick,709 Mission St,Santa Cruz,CA,95060,Verified,-122.034189,36.973668,Child & Youth Services,Government-Individual/Family Social Svcs
Caminar Vallejo Office,Christopher,Kughn,902 Tuolumne St,Vallejo,CA,94590,Verified,-122.237689,38.10893,Civil & Social Organizations,Organizations
Pathway To Hope,,,,Laguna Hills,CA,92653,Verified,-117.701168,33.601284,Civil & Social Organizations,Organizations
Correctional Mental Health,Adelein,Tsjiuchi,501 The City Dr S,Orange,CA,92868,Verified,-117.888952,33.782698,Correctional Institutions,County Govt-Correctional Institutions
Accident Injury & Family Thrpy,Vivian,Workman,17821 17th St # 250,Tustin,CA,92780,Verified,-117.821259,33.760635,Freestanding Ambulatory Surgical & Emergency Ctrs,Clinics
Accuquest,,,8944 Tampa Ave,Northridge,CA,91324,Verified,-118.553516,34.232665,Freestanding Ambulatory Surgical & Emergency Ctrs,Clinics
All-Desert Wellness Ctr,Stephen M,Harmon,73726 Alessandro Dr # 201,Palm Desert,CA,92260,Verified,-116.378444,33.722281,Freestanding Ambulatory Surgical & Emergency Ctrs,Clinics
Alma Family Svc,,,149 S Mednik Ave,Los Angeles,CA,90022,Verified,-118.162164,34.035492,Freestanding Ambulatory Surgical & Emergency Ctrs,Clinics
American College-Behavioral,,,2410 San Ramon Valley Blv #140,San Ramon,CA,94583,Verified,-121.976075,37.775438,Freestanding Ambulatory Surgical & Emergency Ctrs,Clinics
Associated Behavioral Health,,,11858 Bernardo Plaza Ct # 210,San Diego,CA,92128,Verified,-117.076319,33.020768,Freestanding Ambulatory Surgical & Emergency Ctrs,Clinics
BAK-Physiotherapy Assoc Inc,,,805 Veterans Blvd,Redwood City,CA,94063,Verified,-122.228843,37.491356,Freestanding Ambulatory Surgical & Emergency Ctrs,Clinics
Balance Treatment Corp,Ronald,Sager,4505 Las Virgenes Rd # 202,Calabasas,CA,91302,Verified,-118.701337,34.14036,Freestanding Ambulatory Surgical & Emergency Ctrs,Clinics
Barbour & Floyd,,,2620 Industry Way,Lynwood,CA,90262,Verified,-118.225449,33.923298,Freestanding Ambulatory Surgical & Emergency Ctrs,Clinics
"Barbour, Jack M",Jack M,Barbour,2620 Industry Way,Lynwood,CA,90262,Verified,-118.225449,33.923298,Freestanding Ambulatory Surgical & Emergency Ctrs,Clinics
Becton Halthcare Resources Inc,,,5674 Stoneridge Dr # 206,Pleasanton,CA,94588,Verified,-121.887526,37.690344,Freestanding Ambulatory Surgical & Emergency Ctrs,Clinics
Behavioral Concepts,,,23151 Verdugo Dr # 113,Laguna Hills,CA,92653,Verified,-117.729354,33.625771,Freestanding Ambulatory Surgical & Emergency Ctrs,Clinics
Behavioral Re-Integration Prgm,,,5349 Crenshaw Blvd,Los Angeles,CA,90043,Verified,-118.3313,33.993534,Freestanding Ambulatory Surgical & Emergency Ctrs,Clinics
Bernous Psychological Corp,,,1101 Dove St,Newport Beach,CA,92660,Verified,-117.865142,33.660011,Freestanding Ambulatory Surgical & Emergency Ctrs,Clinics
Bienvenidos,,,256 W Badillo St,Covina,CA,91723,Verified,-117.894082,34.085945,Freestanding Ambulatory Surgical & Emergency Ctrs,Clinics
Bloss Clinic,Tena,Alonzo,1251 Grove Ave # A,Atwater,CA,95301,Verified,-120.607129,37.350948,Freestanding Ambulatory Surgical & Emergency Ctrs,Clinics
C A R E S,,,506 W Aten Rd,Imperial,CA,92251,Verified,-115.57981,32.826214,Freestanding Ambulatory Surgical & Emergency Ctrs,Clinics
California Behavior Solutions,,,91 Gregory Ln # 20,Pleasant Hill,CA,94523,Verified,-122.06181,37.94856,Freestanding Ambulatory Surgical & Emergency Ctrs,Clinics
California Healthcare Mgmt Grp,,,17003 Ventura Blvd,Encino,CA,91316,Verified,-118.503622,34.159891,Freestanding Ambulatory Surgical & Emergency Ctrs,Clinics
California Psych Care,,,7226 Sepulveda Blvd,Van Nuys,CA,91405,Verified,-118.46583,34.201972,Freestanding Ambulatory Surgical & Emergency Ctrs,Clinics
Caminar Corp,,,1 Ardenwood Way,San Francisco,CA,94132,Verified,-122.472249,37.735775,Freestanding Ambulatory Surgical & Emergency Ctrs,Clinics
CARD,Julie,Tran,12399 Lewis St # 202,Garden Grove,CA,92840,Verified,-117.89864,33.783311,Freestanding Ambulatory Surgical & Emergency Ctrs,Clinics
Carol Wong Ph D,Carol,Wong,415 N San Mateo Dr # 3,San Mateo,CA,94401,Verified,-122.333309,37.572463,Freestanding Ambulatory Surgical & Emergency Ctrs,Clinics
Center,Tabitha,Weeda,3090 M St,Merced,CA,95348,Verified,-120.477917,37.31886,Freestanding Ambulatory Surgical & Emergency Ctrs,Clinics
Center For Autism & Related,Kathy,Dalke,27127 Calle Arroyo # 1921,San Juan Capistrano,CA,92675,Verified,-117.656228,33.499106,Freestanding Ambulatory Surgical & Emergency Ctrs,Clinics
Center For Individual Family,,,7177 Brockton Ave # 226,Riverside,CA,92506,Verified,-117.39512,33.942482,Freestanding Ambulatory Surgical & Emergency Ctrs,Clinics
Center For Positive Solutions,,,26300 LA Alameda # 280,Mission Viejo,CA,92691,Verified,-117.670643,33.563614,Freestanding Ambulatory Surgical & Emergency Ctrs,Clinics
Centro Jordan De Hipnoterapia,,,5107 Hollywood Blvd,Los Angeles,CA,90027,Verified,-118.30077,34.101801,Freestanding Ambulatory Surgical & Emergency Ctrs,Clinics
Champion Medical Group,Claudia,Otro,1711 W Temple St # 3600,Los Angeles,CA,90026,Verified,-118.263284,34.069787,Freestanding Ambulatory Surgical & Emergency Ctrs,Clinics
Child Guidance Clinic,Linda,Hoyle,3628 Stockdale Hwy,Bakersfield,CA,93309,Verified,-119.044901,35.355014,Freestanding Ambulatory Surgical & Emergency Ctrs,Clinics
Child Guidance Clinic,Marcie,Lesser,1430 6th Ave,Delano,CA,93215,Verified,-119.237175,35.76444,Freestanding Ambulatory Surgical & Emergency Ctrs,Clinics
Claudia Cerda Psy D,Claudia,Cerda,5588 N Palm Ave,Fresno,CA,93704,Verified,-119.807931,36.818874,Freestanding Ambulatory Surgical & Emergency Ctrs,Clinics
Clinica Sierra Vista Selpa,,,455 Kern St,Shafter,CA,93263,Verified,-119.272664,35.504766,Freestanding Ambulatory Surgical & Emergency Ctrs,Clinics
Clinicas Del Camino Real,Paula,Hurtado,200 S Wells Rd # 200,Ventura,CA,93004,Verified,-119.159071,34.29357,Freestanding Ambulatory Surgical & Emergency Ctrs,Clinics
Clinicas Del Camino Real Inc,Sonia,Mata,1200 N Ventura Rd # E,Oxnard,CA,93030,Verified,-119.194202,34.214351,Freestanding Ambulatory Surgical & Emergency Ctrs,Clinics
Clinicas Del Camino Real Inc,Laura,Aguiniga,450 W Clara St,Oxnard,CA,93033,Verified,-119.182216,34.151145,Freestanding Ambulatory Surgical & Emergency Ctrs,Clinics
Clinicas Del Camino Real-El,Roberto S,Juarez,221 E Ventura Blvd # 126,Oxnard,CA,93036,Verified,-119.170804,34.23112,Freestanding Ambulatory Surgical & Emergency Ctrs,Clinics
Collaborative Neuro Science,,,,Westminster,CA,92683,Verified,-117.995853,33.755013,Freestanding Ambulatory Surgical & Emergency Ctrs,Clinics
Community Behavorial Health,John,Ledoux,7071 Consolidated Way,San Diego,CA,92121,Verified,-117.16186,32.878402,Freestanding Ambulatory Surgical & Emergency Ctrs,Clinics
Community Consultants Med Grp,Joana,Galvan,17403 Woodruff Ave,Bellflower,CA,90706,Verified,-118.117338,33.87462,Freestanding Ambulatory Surgical & Emergency Ctrs,Clinics
Community Psychiatry,P,Priyanka,7750 N Fresno St # 104,Fresno,CA,93720,Verified,-119.783411,36.851382,Freestanding Ambulatory Surgical & Emergency Ctrs,Clinics
Community Psychiatry Assoc,Rebecca,Ridens,1000 River Rock Dr # 210,Folsom,CA,95630,Verified,-121.195378,38.67855,Freestanding Ambulatory Surgical & Emergency Ctrs,Clinics
Community Psychiatry Assoc,Marina,Berb,2180 Harvard St # 210,Sacramento,CA,95815,Verified,-121.434518,38.60604,Freestanding Ambulatory Surgical & Emergency Ctrs,Clinics
Community Psychiatry Assoc,,,7510 Shoreline Dr # A6,Stockton,CA,95219,Verified,-121.35869,38.018884,Freestanding Ambulatory Surgical & Emergency Ctrs,Clinics
Communniy Psychiatry,,,1241 Alamo Dr,Vacaville,CA,95687,Verified,-121.991689,38.341385,Freestanding Ambulatory Surgical & Emergency Ctrs,Clinics
Comprehensive Psychiatric Svc,Harvey J,Widroe,455 Hickey Blvd # 414,Daly City,CA,94015,Verified,-122.466967,37.663158,Freestanding Ambulatory Surgical & Emergency Ctrs,Clinics
Conejo Children's Svc,Ophra,Shur,72 Moody Ct # 201,Thousand Oaks,CA,91360,Verified,-118.865707,34.178361,Freestanding Ambulatory Surgical & Emergency Ctrs,Clinics
Connections Adolescent Day Tre,,,3491 Elm Ave,Long Beach,CA,90807,Verified,-118.188231,33.820301,Freestanding Ambulatory Surgical & Emergency Ctrs,Clinics
County Of Butte,Amy,Wilner,109 Parmac Rd # 1,Chico,CA,95926,Verified,-121.850026,39.753532,Freestanding Ambulatory Surgical & Emergency Ctrs,Clinics
County Of Merced,Yvonnia,Brown,480 E 13th St,Merced,CA,95341,Verified,-120.471005,37.29165,Freestanding Ambulatory Surgical & Emergency Ctrs,Clinics
County-Los Angeles-Mental Hlth,Camille C,Baclagan,12440 Imperial Hwy # 116,Norwalk,CA,90650,Verified,-118.065675,33.915744,Freestanding Ambulatory Surgical & Emergency Ctrs,Clinics
Darin M Camarena Health Ctr,Anna,Camerena,401 Trinity Ave,Chowchilla,CA,93610,Verified,-120.260869,37.120624,Freestanding Ambulatory Surgical & Emergency Ctrs,Clinics
Darin M Camarena Health Ctr,Sandra,Martin,344 E 6th St,Madera,CA,93638,Verified,-120.055351,36.962494,Freestanding Ambulatory Surgical & Emergency Ctrs,Clinics
De Brito Professional Med Corp,Dirk,DE Brito,751 N Fair Oaks Ave # 300,Pasadena,CA,91103,Verified,-118.151052,34.158871,Freestanding Ambulatory Surgical & Emergency Ctrs,Clinics
Del Valle Clinic,,,1797 4th St,Livermore,CA,94550,Verified,-121.772667,37.67795,Freestanding Ambulatory Surgical & Emergency Ctrs,Clinics
Desert Counseling Clinic Inc,,,2105 F St,Bakersfield,CA,93301,Verified,-119.02385,35.378433,Freestanding Ambulatory Surgical & Emergency Ctrs,Clinics
Dialectical Behavioral Therapy,Pinh,Brown,9666 Businesspark Ave # 105,San Diego,CA,92131,Verified,-117.112919,32.898262,Freestanding Ambulatory Surgical & Emergency Ctrs,Clinics
Didi Hirsch Cmnty Mental Hlth,Kita,Curry,4760 Sepulveda Blvd,Culver City,CA,90230,Verified,-118.403787,34.001591,Freestanding Ambulatory Surgical & Emergency Ctrs,Clinics
Didi Hirsch Mental Svc,Didi,Hirsch,2000 E 4th St # 110,Santa Ana,CA,92705,Verified,-117.838666,33.747679,Freestanding Ambulatory Surgical & Emergency Ctrs,Clinics
Dr Reef Inc,Reef,Karim,8383 Wilshire Blvd # 228,Beverly Hills,CA,90211,Verified,-118.373465,34.065013,Freestanding Ambulatory Surgical & Emergency Ctrs,Clinics
Drake Institute,Jeff,Countz,4330 Barranca Pkwy # 130,Irvine,CA,92604,Verified,-117.804587,33.681124,Freestanding Ambulatory Surgical & Emergency Ctrs,Clinics
Dunamis Inc,,,4991 E Mckinley Ave,Fresno,CA,93727,Verified,-119.727774,36.765875,Freestanding Ambulatory Surgical & Emergency Ctrs,Clinics
Eggleston Mental Health Svc,,,3701 Stocker St,View Park,CA,90008,Verified,-118.337501,34.007543,Freestanding Ambulatory Surgical & Emergency Ctrs,Clinics
Encompass Community Svc,Jan,Hilkert,3035 Prather Ln,Santa Cruz,CA,95065,Verified,-121.977004,36.988885,Freestanding Ambulatory Surgical & Emergency Ctrs,Clinics
Exodus Recovery,Tamara,Stark,550 W Vista Way # 109,Vista,CA,92083,Verified,-117.253527,33.195611,Freestanding Ambulatory Surgical & Emergency Ctrs,Clinics
Family Education & Resource,,,,Livermore,CA,94551,Verified,-121.767302,37.698706,Freestanding Ambulatory Surgical & Emergency Ctrs,Clinics
Family Health Ctr Of Sd,Ricardo,Roman,823 Gateway Center Way,San Diego,CA,92102,Verified,-117.11341,32.715415,Freestanding Ambulatory Surgical & Emergency Ctrs,Clinics
Family Wellness Ctr Inc,,,7872 Walker St # 110,La Palma,CA,90623,Verified,-118.036791,33.847918,Freestanding Ambulatory Surgical & Emergency Ctrs,Clinics
"Fernandez, Rebecca R",Rebecca R,Fernandez,7171 N Millbrook Ave # 102,Fresno,CA,93720,Verified,-119.765236,36.839723,Freestanding Ambulatory Surgical & Emergency Ctrs,Clinics
Foundations Psychological Svc,,,1912 Lincoln Ave,San Jose,CA,95125,Verified,-121.891488,37.295729,Freestanding Ambulatory Surgical & Emergency Ctrs,Clinics
Franklin & Assoc,,,411 30th St # 102,Oakland,CA,94609,Verified,-122.264972,37.818855,Freestanding Ambulatory Surgical & Emergency Ctrs,Clinics
Frazier Mountain Comm,Alex,Regis,704 Lebec Rd,Lebec,CA,93243,Verified,-118.873442,34.84426,Freestanding Ambulatory Surgical & Emergency Ctrs,Clinics
Fremont Psychiatric Medical,George,David,1999 Mowry Ave # 2b,Fremont,CA,94538,Verified,-121.981971,37.558401,Freestanding Ambulatory Surgical & Emergency Ctrs,Clinics
Genomic Health,Ginger L,Graham,701 Galveston Dr,Redwood City,CA,94063,Verified,-122.216888,37.498395,Freestanding Ambulatory Surgical & Emergency Ctrs,Clinics
Golden Hills Psychiatry,,,1037 Suncast Ln # 100,El Dorado Hills,CA,95762,Verified,-121.070412,38.636037,Freestanding Ambulatory Surgical & Emergency Ctrs,Clinics
Greenville Rancheria,Rachel,Radcliffe,1425 Montgomery Rd,Red Bluff,CA,96080,Verified,-122.225471,40.157631,Freestanding Ambulatory Surgical & Emergency Ctrs,Clinics
Hansen Family Health Ctr,,,215 W Beamer St,Woodland,CA,95695,Verified,-121.794726,38.684815,Freestanding Ambulatory Surgical & Emergency Ctrs,Clinics
Health Care Svc Inc,Lorraine,Owens,73345 Highway 111 # 203b,Palm Desert,CA,92260,Verified,-116.385082,33.720641,Freestanding Ambulatory Surgical & Emergency Ctrs,Clinics
Health Quest Solutions,,,1753 S Hill St,Los Angeles,CA,90015,Verified,-118.265676,34.033395,Freestanding Ambulatory Surgical & Emergency Ctrs,Clinics
Henrietta Memorial Child Clnc,Kevin,Earnest,2001 N Chester Ave,Bakersfield,CA,93308,Verified,-119.021583,35.42447,Freestanding Ambulatory Surgical & Emergency Ctrs,Clinics
Heritage Clinic,Patricia,Gonzalez,155 N Occidental Blvd,Los Angeles,CA,90026,Verified,-118.27963,34.072165,Freestanding Ambulatory Surgical & Emergency Ctrs,Clinics
High Desert Medical Group,Rafeal,Gonzalez,43839 15th St W,Lancaster,CA,93534,Verified,-118.1581,34.678583,Freestanding Ambulatory Surgical & Emergency Ctrs,Clinics
Home Base,,,411 30th St # 514,Oakland,CA,94609,Verified,-122.264972,37.818855,Freestanding Ambulatory Surgical & Emergency Ctrs,Clinics
Inland Behavioral & Health Svc,Temetry A,Lindsey,1070 E Ramsey St # C,Banning,CA,92220,Verified,-116.864665,33.92498,Freestanding Ambulatory Surgical & Emergency Ctrs,Clinics
Inland Family Cmnty Health Ctr,,,665 N D St,San Bernardino,CA,92401,Verified,-117.291266,34.111568,Freestanding Ambulatory Surgical & Emergency Ctrs,Clinics
Insight Telepsychiatry,,,179 Iris Blossom Ct,San Jose,CA,95123,Verified,-121.814298,37.25299,Freestanding Ambulatory Surgical & Emergency Ctrs,Clinics
Integrated Treatmeant Svc,,,3741 Stocker St,View Park,CA,90008,Verified,-118.338635,34.006488,Freestanding Ambulatory Surgical & Emergency Ctrs,Clinics
Joy Of Wellness LLC,,,13701 Riverside Dr,Sherman Oaks,CA,91423,Verified,-118.432015,34.157938,Freestanding Ambulatory Surgical & Emergency Ctrs,Clinics
Kaiser Permanente Psyctry Ctr,Valerie,Rausch,5225 Canyon Crest Dr # 103,Riverside,CA,92507,Verified,-117.331262,33.956095,Freestanding Ambulatory Surgical & Emergency Ctrs,Clinics
Kaiser Permanente Sn Jose,Shannon B,Michelson,5755 Cottle Rd # 4,San Jose,CA,95123,Verified,-121.804085,37.247232,Freestanding Ambulatory Surgical & Emergency Ctrs,Clinics
Kings County Mental Health Svc,Steve,Emery,228 E Kings St,Avenal,CA,93204,Verified,-120.135352,36.002344,Freestanding Ambulatory Surgical & Emergency Ctrs,Clinics
Kinship Center North Clinic,Inna,Liu,233 S Quintana Dr,Anaheim,CA,92807,Verified,-117.775193,33.851095,Freestanding Ambulatory Surgical & Emergency Ctrs,Clinics
Kohut Psychiatric Assoc,Joann,Kohut,1800 Medical Center Dr # 300,San Bernardino,CA,92411,Verified,-117.322934,34.131814,Freestanding Ambulatory Surgical & Emergency Ctrs,Clinics
LA Clinica,Elizabeth,Zeja,1501 Fruitvale Ave,Oakland,CA,94601,Verified,-122.225416,37.779083,Freestanding Ambulatory Surgical & Emergency Ctrs,Clinics
LA Familia Counseling Ctr,Rachel,Rios,5523 34th St,Sacramento,CA,95820,Verified,-121.469844,38.526639,Freestanding Ambulatory Surgical & Emergency Ctrs,Clinics
Lake Family Resource Ctr,Gloria,Flaherty,5350 Main St,Kelseyville,CA,95451,Verified,-122.832196,38.976152,Freestanding Ambulatory Surgical & Emergency Ctrs,Clinics
Little Lake Health Ctr,Becky,Driscoll,45 Hazel St,Willits,CA,95490,Verified,-123.352238,39.400109,Freestanding Ambulatory Surgical & Emergency Ctrs,Clinics
Livity Treatment Ctr,Erin,Patterson,7200 Fair Oaks Blvd # 100,Carmichael,CA,95608,Verified,-121.327625,38.631718,Freestanding Ambulatory Surgical & Emergency Ctrs,Clinics
Los Angeles County Mental Hlth,Herbert,Anderson Jr,10605 Balboa Blvd # 100,Granada Hills,CA,91344,Verified,-118.50271,34.263396,Freestanding Ambulatory Surgical & Emergency Ctrs,Clinics
Lotus Collaborative,Elizabeth,Esalen,1610 Union St,San Francisco,CA,94123,Verified,-122.425801,37.798366,Freestanding Ambulatory Surgical & Emergency Ctrs,Clinics
Manghera Michael Lcsw,Michael,Manghera,200 W Bullard Ave,Clovis,CA,93612,Verified,-119.714055,36.822456,Freestanding Ambulatory Surgical & Emergency Ctrs,Clinics
Mare Island VA Outpatient,,,201 Walnut Ave,Vallejo,CA,94592,Verified,-122.275804,38.097882,Freestanding Ambulatory Surgical & Emergency Ctrs,Clinics
Martinez Arts Outpatient Clnc,Hadi,Janbakhsh,150 Muir Rd,Martinez,CA,94553,Verified,-122.115705,37.993962,Freestanding Ambulatory Surgical & Emergency Ctrs,Clinics
Mary Deyo Psyd,Mary,Deyo,25 Western Ave,Petaluma,CA,94952,Verified,-122.640909,38.233681,Freestanding Ambulatory Surgical & Emergency Ctrs,Clinics
Medication Management Clinic,Kim,Terry,401 Parnassus Ave,San Francisco,CA,94143,Verified,-122.456887,37.76358,Freestanding Ambulatory Surgical & Emergency Ctrs,Clinics
Mission City Community Network,Scheela,Mohammed,4842 Hollywood Blvd,Los Angeles,CA,90027,Verified,-118.29526,34.101714,Freestanding Ambulatory Surgical & Emergency Ctrs,Clinics
Mission Family Therapy,,,601 University Ave,Sacramento,CA,95825,Verified,-121.419924,38.568431,Freestanding Ambulatory Surgical & Emergency Ctrs,Clinics
Mission Treatment Svc Inc,Katherine,Williams,161 N Date St,Escondido,CA,92025,Verified,-117.070535,33.126475,Freestanding Ambulatory Surgical & Emergency Ctrs,Clinics
Morrow Lenton,,,4378 Auburn Blvd # 100,Sacramento,CA,95841,Verified,-121.361393,38.645074,Freestanding Ambulatory Surgical & Emergency Ctrs,Clinics
National Psychiatric Care,Rachel,Zioulas,650 S 5th St,San Jose,CA,95112,Verified,-121.87862,37.328427,Freestanding Ambulatory Surgical & Emergency Ctrs,Clinics
New Origins,Ronald,Honn,101 E Redlands Blvd # 200,Redlands,CA,92373,Verified,-117.180652,34.058313,Freestanding Ambulatory Surgical & Emergency Ctrs,Clinics
Pacific Bay TMS,Andrew,Krompier,5401 Norris Canyon Rd # 314,San Ramon,CA,94583,Verified,-121.95803,37.777249,Freestanding Ambulatory Surgical & Emergency Ctrs,Clinics
Pacific Clinics,Gina,Perez,12921 Ramona Blvd # F,Baldwin Park,CA,91706,Verified,-117.990006,34.079571,Freestanding Ambulatory Surgical & Emergency Ctrs,Clinics
Pacific Clinics,,,3569 Lexington Ave,El Monte,CA,91731,Verified,-118.039622,34.074442,Freestanding Ambulatory Surgical & Emergency Ctrs,Clinics
Pacific Clinics,Valerie,Romero,9864 Baldwin Pl,El Monte,CA,91731,Verified,-118.054268,34.070307,Freestanding Ambulatory Surgical & Emergency Ctrs,Clinics
Pacific Clinics,,,1151 W 6th St,Los Angeles,CA,90017,Verified,-118.263425,34.054951,Freestanding Ambulatory Surgical & Emergency Ctrs,Clinics
Pacific Clinics,,,1395 E Orange Grove Blvd,Pasadena,CA,91104,Verified,-118.121761,34.158193,Freestanding Ambulatory Surgical & Emergency Ctrs,Clinics
Pacific Clinics,,,717 N Hill Ave,Pasadena,CA,91104,Verified,-118.121502,34.158427,Freestanding Ambulatory Surgical & Emergency Ctrs,Clinics
Pacific Clinics,Mauricio,Cruz,1501 S Riverside Ave,Rialto,CA,92376,Verified,-117.369128,34.073546,Freestanding Ambulatory Surgical & Emergency Ctrs,Clinics
Pacific Clinics,Terry,Gock,9353 Valley Blvd # C,Rosemead,CA,91770,Verified,-118.065443,34.081705,Freestanding Ambulatory Surgical & Emergency Ctrs,Clinics
Pacific Clinics,Pablo,Anabalon,11721 Telegraph Rd # A,Santa Fe Springs,CA,90670,Verified,-118.083068,33.94685,Freestanding Ambulatory Surgical & Emergency Ctrs,Clinics
Pacific Clinics,Viola,Gaffney,1517 W Garvey Ave N,West Covina,CA,91790,Verified,-117.938658,34.073523,Freestanding Ambulatory Surgical & Emergency Ctrs,Clinics
Pacific Clinics,Mauricio,Cruz,56020 Santa Fe Trl # M,Yucca Valley,CA,92284,Verified,-116.442082,34.11962,Freestanding Ambulatory Surgical & Emergency Ctrs,Clinics
Pacific Clinics Latina Youth,Maria,Martin,11741 Telegraph Rd # G,Santa Fe Springs,CA,90670,Verified,-118.082828,33.946111,Freestanding Ambulatory Surgical & Emergency Ctrs,Clinics
Pacific Clinics Mental Health,Peggy,Baddin,1460 N Lake Ave # 101,Pasadena,CA,91104,Verified,-118.131747,34.171026,Freestanding Ambulatory Surgical & Emergency Ctrs,Clinics
Pacific Health Systems LP,Patricia,Lemere,1908 Sweetwater Rd,National City,CA,91950,Verified,-117.078819,32.660371,Freestanding Ambulatory Surgical & Emergency Ctrs,Clinics
Pacific Neuropsychiatric Spec,Alejandro,Alva,3151 Airway Ave # T3,Costa Mesa,CA,92626,Verified,-117.872257,33.677906,Freestanding Ambulatory Surgical & Emergency Ctrs,Clinics
Palo Alto VA Mc,Lisa,Duncan,80 Great Oaks Blvd,San Jose,CA,95119,Verified,-121.777187,37.234312,Freestanding Ambulatory Surgical & Emergency Ctrs,Clinics
Park Psychiatry LLC,,,9301 Wilshire Blvd # 204,Beverly Hills,CA,90210,Verified,-118.394668,34.067344,Freestanding Ambulatory Surgical & Emergency Ctrs,Clinics
Park Psychiatry LLC,Esther,Park,23141 Moulton Pkwy # 213,Laguna Hills,CA,92653,Verified,-117.732101,33.626479,Freestanding Ambulatory Surgical & Emergency Ctrs,Clinics
Pasadena Anxiety & O C D,,,4 E Holly St,Pasadena,CA,91103,Verified,-118.15046,34.147612,Freestanding Ambulatory Surgical & Emergency Ctrs,Clinics
Pathways To Wellness Clinic,Neisha,Becton,1700 Broadway # 5th,Oakland,CA,94612,Verified,-122.269403,37.806708,Freestanding Ambulatory Surgical & Emergency Ctrs,Clinics
Pcsd,Rita K,Mccrerey-Vogel,4700 Spring St # 220,La Mesa,CA,91942,Verified,-117.021385,32.764264,Freestanding Ambulatory Surgical & Emergency Ctrs,Clinics
Promesa Behavioral Health,Arlene,Vargas,1415 W Barstow Ave,Fresno,CA,93711,Verified,-119.817703,36.815299,Freestanding Ambulatory Surgical & Emergency Ctrs,Clinics
Promesa Behavioral Health,,,1853 E Niles Ave,Fresno,CA,93720,Verified,-119.749754,36.854764,Freestanding Ambulatory Surgical & Emergency Ctrs,Clinics
Promesa Behavioral Health,Arlene,Vargas,1942 E Niles Ave,Fresno,CA,93720,Verified,-119.748077,36.855204,Freestanding Ambulatory Surgical & Emergency Ctrs,Clinics
Promesa Behavioral Health,Mary,Krahn,4291 N Millbrook Ave,Fresno,CA,93726,Verified,-119.763733,36.795742,Freestanding Ambulatory Surgical & Emergency Ctrs,Clinics
Prysys Psychology Group Inc,Tom,Horvath,8950 Villa LA Jolla Dr # B214,La Jolla,CA,92037,Verified,-117.234734,32.870865,Freestanding Ambulatory Surgical & Emergency Ctrs,Clinics
Psychiatric Center Of Sn Diego,Robin,Alldis,1061 Tierra Del Rey # 200,Chula Vista,CA,91910,Verified,-117.015546,32.638388,Freestanding Ambulatory Surgical & Emergency Ctrs,Clinics
Psychiatric Wellness Ctr Psych,,,8329 Brimhall Rd # 800-804,Bakersfield,CA,93312,Verified,-119.095699,35.366761,Freestanding Ambulatory Surgical & Emergency Ctrs,Clinics
Ravenswood Dispensary,,,1842 Bay Rd,East Palo Alto,CA,94303,Verified,-122.133653,37.472116,Freestanding Ambulatory Surgical & Emergency Ctrs,Clinics
Redding VA Outpatient Clinic,Celeste,Clark,351 Hartnell Ave,Redding,CA,96002,Verified,-122.367073,40.565277,Freestanding Ambulatory Surgical & Emergency Ctrs,Clinics
Redwood Children's Svc Inc,Camille,Schraeder,350 E Gobbi St,Ukiah,CA,95482,Verified,-123.202025,39.14458,Freestanding Ambulatory Surgical & Emergency Ctrs,Clinics
Redwood Community Svc,Charity,Newfield,750 Old Lucerne Rd,Upper Lake,CA,95485,Verified,-122.901778,39.164364,Freestanding Ambulatory Surgical & Emergency Ctrs,Clinics
Relief Acupuncture,Jenick,Toomassian,700 E Colorado St,Glendale,CA,91205,Verified,-118.246653,34.142463,Freestanding Ambulatory Surgical & Emergency Ctrs,Clinics
River Oak,Laurie,Clothier,9412 Big Horn Blvd # 6,Elk Grove,CA,95758,Verified,-121.407957,38.41578,Freestanding Ambulatory Surgical & Emergency Ctrs,Clinics
Russian River Health Ctr,Roni,Delucchi,16319 3rd St,Guerneville,CA,95446,Verified,-122.994552,38.502921,Freestanding Ambulatory Surgical & Emergency Ctrs,Clinics
S S G Mental Health Unit,,,420 S San Pedro St,Los Angeles,CA,90013,Verified,-118.242647,34.044858,Freestanding Ambulatory Surgical & Emergency Ctrs,Clinics
Sacramento VA Mental Health,,,10535 Hospital Way,Rancho Cordova,CA,95655,Verified,-121.296544,38.572745,Freestanding Ambulatory Surgical & Emergency Ctrs,Clinics
San Diego Psychoanalytic Scty,Michelle,Blancett,4455 Morena Blvd # 202,San Diego,CA,92117,Verified,-117.222905,32.819294,Freestanding Ambulatory Surgical & Emergency Ctrs,Clinics
Santa Clarita Vly Mental Hlth,Michelle,Majors,23501 Cinema Dr # 210,Valencia,CA,91355,Verified,-118.546125,34.42093,Freestanding Ambulatory Surgical & Emergency Ctrs,Clinics
Satori Health Licensed Clinic,,,1805 E Fir Ave # 107,Fresno,CA,93720,Verified,-119.749794,36.838739,Freestanding Ambulatory Surgical & Emergency Ctrs,Clinics
Scripps Clinic,,,5405 Morehouse Dr # 100,San Diego,CA,92121,Verified,-117.200948,32.893303,Freestanding Ambulatory Surgical & Emergency Ctrs,Clinics
Sharper Future,,,851 Del Mar Ave,San Jose,CA,95128,Verified,-121.9308,37.31159,Freestanding Ambulatory Surgical & Emergency Ctrs,Clinics
Sierra Child & Family Svc,Barry,Harwell,4250 Fowler Ln # 204,Diamond Springs,CA,95619,Verified,-120.813519,38.693732,Freestanding Ambulatory Surgical & Emergency Ctrs,Clinics
Sierra Child & Family Svc,Barry,Harwell,601 Court St # 100,Jackson,CA,95642,Verified,-120.770742,38.352247,Freestanding Ambulatory Surgical & Emergency Ctrs,Clinics
Slyan Clinical Corp,,,1260 N Dutton Ave,Santa Rosa,CA,95401,Verified,-122.732056,38.449186,Freestanding Ambulatory Surgical & Emergency Ctrs,Clinics
South Bay Guidance Ctr,Mary,Wheeler,835 Third Ave # C,Chula Vista,CA,91911,Verified,-117.071923,32.623171,Freestanding Ambulatory Surgical & Emergency Ctrs,Clinics
South Coast Behavioral Health,Charles,Mc Phail,3151 Airway Ave # T2,Costa Mesa,CA,92626,Verified,-117.872257,33.677906,Freestanding Ambulatory Surgical & Emergency Ctrs,Clinics
South Coast Psychological Ctr,,,980 Roosevelt # 240,Irvine,CA,92620,Verified,-117.765492,33.69361,Freestanding Ambulatory Surgical & Emergency Ctrs,Clinics
Southern California Counseling,Gail,Wilburn,5615 W Pico Blvd,Los Angeles,CA,90019,Verified,-118.360421,34.050266,Freestanding Ambulatory Surgical & Emergency Ctrs,Clinics
Spring Valley Counseling,,,8788 Jamacha Rd,Spring Valley,CA,91977,Verified,-117.009841,32.715327,Freestanding Ambulatory Surgical & Emergency Ctrs,Clinics
Stanislaus Phf,,,1904 Richland Ave,Ceres,CA,95307,Verified,-120.963023,37.600432,Freestanding Ambulatory Surgical & Emergency Ctrs,Clinics
Synergy Clinical Ctr,Karina,Campbell,1908 Sweetwater Rd,National City,CA,91950,Verified,-117.078819,32.660371,Freestanding Ambulatory Surgical & Emergency Ctrs,Clinics
Telecare,Ed,Bienkowski,12440 Firestone Blvd # 3020,Norwalk,CA,90650,Verified,-118.068477,33.90477,Freestanding Ambulatory Surgical & Emergency Ctrs,Clinics
Telecare,,,2020 Iowa Ave # 101,Riverside,CA,92507,Verified,-117.337989,33.992995,Freestanding Ambulatory Surgical & Emergency Ctrs,Clinics
Telecare Discoveries,,,9901 Artesia Blvd,Bellflower,CA,90706,Verified,-118.122821,33.875126,Freestanding Ambulatory Surgical & Emergency Ctrs,Clinics
Tenderloin Outpatient Clinic,Cindy,Gyori,815 Hyde St # 100,San Francisco,CA,94109,Verified,-122.417256,37.788505,Freestanding Ambulatory Surgical & Emergency Ctrs,Clinics
Teri Wright Ph D,,,2101 N Main St # D,Santa Ana,CA,92706,Verified,-117.867123,33.763981,Freestanding Ambulatory Surgical & Emergency Ctrs,Clinics
Tessie Clevelord Community Svc,Moses,Chadwick,8019 Compton Ave,Los Angeles,CA,90001,Verified,-118.247725,33.966445,Freestanding Ambulatory Surgical & Emergency Ctrs,Clinics
Therapeutic Designs,,,355 W Las Palmas Ave,Patterson,CA,95363,Verified,-121.131976,37.470989,Freestanding Ambulatory Surgical & Emergency Ctrs,Clinics
Tlcs Inc,Paul,Powell,650 Howe Ave # 400,Sacramento,CA,95825,Verified,-121.414559,38.577258,Freestanding Ambulatory Surgical & Emergency Ctrs,Clinics
Transitions Mental Health Assn,,,7125 Santa Ysabel Ave,Atascadero,CA,93422,Verified,-120.662178,35.487083,Freestanding Ambulatory Surgical & Emergency Ctrs,Clinics
Transitions-Mental Health Assn,Frank,Ricceri,117 W Tunnell St,Santa Maria,CA,93458,Verified,-120.436609,34.957785,Freestanding Ambulatory Surgical & Emergency Ctrs,Clinics
Trumpet Behavioral Health,,,564 S Dora St # E,Ukiah,CA,95482,Verified,-123.212137,39.145613,Freestanding Ambulatory Surgical & Emergency Ctrs,Clinics
U C Davis Medical Group,Becky,Mackey,2230 Stockton Blvd,Sacramento,CA,95817,Verified,-121.459193,38.555507,Freestanding Ambulatory Surgical & Emergency Ctrs,Clinics
UCLA Behavioral Health Outpat,,,300 Westwood Plz # 1100,Los Angeles,CA,90095,Verified,-118.444854,34.069414,Freestanding Ambulatory Surgical & Emergency Ctrs,Clinics
Universal Psychiatric,,,4305 Torrance Blvd # 409,Torrance,CA,90503,Verified,-118.359346,33.838037,Freestanding Ambulatory Surgical & Emergency Ctrs,Clinics
VA Bakersfield Clinic,,,1801 Westwind Dr,Bakersfield,CA,93301,Verified,-119.043355,35.375586,Freestanding Ambulatory Surgical & Emergency Ctrs,Clinics
VA Capitola Clinic,Donna,Barr,1350 41st Ave,Capitola,CA,95010,Verified,-121.964167,36.970589,Freestanding Ambulatory Surgical & Emergency Ctrs,Clinics
VA Chico Outpatient Clinic,,,280 Cohasset Rd,Chico,CA,95926,Verified,-121.851908,39.752016,Freestanding Ambulatory Surgical & Emergency Ctrs,Clinics
VA Clearlake Outpatient Clinic,,,15145 Lakeshore Dr,Clearlake,CA,95422,Verified,-122.628587,38.949376,Freestanding Ambulatory Surgical & Emergency Ctrs,Clinics
VA Escondido Clinic,Eric,Faulkner,815 E Pennsylvania Ave,Escondido,CA,92025,Verified,-117.071661,33.127251,Freestanding Ambulatory Surgical & Emergency Ctrs,Clinics
VA Fairfield Outpatient Clinic,,,103 Bodin Cir,Fairfield,CA,94535,Verified,-121.960721,38.268039,Freestanding Ambulatory Surgical & Emergency Ctrs,Clinics
VA Los Angeles Clinic,Sameer,Qureshi,351 E Temple St,Los Angeles,CA,90012,Verified,-118.238589,34.052558,Freestanding Ambulatory Surgical & Emergency Ctrs,Clinics
VA Modesto Clinic,,,1524 Mchenry Ave # 325,Modesto,CA,95350,Verified,-120.992889,37.666206,Freestanding Ambulatory Surgical & Emergency Ctrs,Clinics
VA Palo Alto Healthcare System,,,3801 Miranda Ave,Palo Alto,CA,94304,Verified,-122.141518,37.402719,Freestanding Ambulatory Surgical & Emergency Ctrs,Clinics
VA Santa Barbara Clinic,Robert,Gaines,4440 Calle Real,Santa Barbara,CA,93110,Verified,-119.777488,34.442442,Freestanding Ambulatory Surgical & Emergency Ctrs,Clinics
VA Sierra Foothills Outpatient,,,11985 Heritage Oak Pl # 100,Auburn,CA,95603,Verified,-121.099572,38.941614,Freestanding Ambulatory Surgical & Emergency Ctrs,Clinics
VA Sonora Clinic,Pam,Polk,13663 Mono Way,Sonora,CA,95370,Verified,-120.345015,37.974701,Freestanding Ambulatory Surgical & Emergency Ctrs,Clinics
Valley Community Healthcare,Paula,Wilson,6801 Coldwater Canyon Ave # 1b,North Hollywood,CA,91605,Verified,-118.413849,34.194245,Freestanding Ambulatory Surgical & Emergency Ctrs,Clinics
Ventura County Mental Health,Daniel,Powell,200 Hillmont Ave,Ventura,CA,93003,Verified,-119.254012,34.277581,Freestanding Ambulatory Surgical & Emergency Ctrs,Clinics
Vestige,,,4633 30th St,San Diego,CA,92116,Verified,-117.129837,32.76168,Freestanding Ambulatory Surgical & Emergency Ctrs,Clinics
Vision Re Edu Ctr Of Sn Diego,Dawn,Rose,4747 Morena Blvd,San Diego,CA,92117,Verified,-117.228627,32.824534,Freestanding Ambulatory Surgical & Emergency Ctrs,Clinics
Vital Care Health Systems,Leilani,Ferrer,444 Camino Del Rio S # 219,San Diego,CA,92108,Verified,-117.160678,32.761755,Freestanding Ambulatory Surgical & Emergency Ctrs,Clinics
West County Health Ctr,,,652 Petaluma Ave,Sebastopol,CA,95472,Verified,-122.820049,38.396475,Freestanding Ambulatory Surgical & Emergency Ctrs,Clinics
Western Psychological Svc,Jeff,Manson,625 Alaska Ave,Torrance,CA,90503,Verified,-118.332177,33.840375,Freestanding Ambulatory Surgical & Emergency Ctrs,Clinics
Westside Psychology Group,,,11500 W Olympic Blvd # 580,Los Angeles,CA,90064,Verified,-118.444133,34.035771,Freestanding Ambulatory Surgical & Emergency Ctrs,Clinics
Willow Creek Plaza Assoc,Ronald,Currie,9820 Willow Creek Rd # 400,San Diego,CA,92131,Verified,-117.114967,32.901616,Freestanding Ambulatory Surgical & Emergency Ctrs,Clinics
Women For Sobriety Ctr Inc,Shirley,Harris,1422 S Wilton Pl,Los Angeles,CA,90019,Verified,-118.314126,34.045563,Freestanding Ambulatory Surgical & Emergency Ctrs,Clinics
Atascadero State Hospital,Linda,Persons,10333 El Camino Real,Atascadero,CA,93422,Verified,-120.634965,35.462302,General Medical & Surgical Hospitals,Hospitals
Aurora Charter Oak Hospital,Todd A,Smith,1161 E Covina Blvd,Covina,CA,91724,Verified,-117.86707,34.100383,General Medical & Surgical Hospitals,Hospitals
Aurora San Diego Hospital,James S,Plummer,11878 Avenue Of Industry,San Diego,CA,92128,Verified,-117.075524,32.991091,General Medical & Surgical Hospitals,Hospitals
Aurora Vista Del Mar Hospital,Mayla,Krebsbach,801 Seneca St,Ventura,CA,93001,Verified,-119.283651,34.307695,General Medical & Surgical Hospitals,Hospitals
Bayview Hospital & Mental Htlh,Louis,Leon,330 Moss St,Chula Vista,CA,91911,Verified,-117.071783,32.617493,General Medical & Surgical Hospitals,Hospitals
BHC Alhambra Hospital,Peggy,Minnick,4619 Rosemead Blvd,Rosemead,CA,91770,Verified,-118.073845,34.088676,General Medical & Surgical Hospitals,Hospitals
Canyon Ridge Hospital,Jeff,Mc Donald,5353 G St,Chino,CA,91710,Verified,-117.687992,34.009907,General Medical & Surgical Hospitals,Hospitals
Coalinga State Hospital,Brandon,Price,24511 W Jayne Ave,Coalinga,CA,93210,Verified,-120.240303,36.137238,General Medical & Surgical Hospitals,Hospitals
College Hospital Cerritos,Stephen,Witt,10802 College Pl,Cerritos,CA,90703,Verified,-118.102903,33.885188,General Medical & Surgical Hospitals,Hospitals
College Hospital Costa Mesa,Susan L,Taylor,301 Victoria St,Costa Mesa,CA,92627,Verified,-117.911295,33.652593,General Medical & Surgical Hospitals,Hospitals
Community Hosp San Bernardino,June,Collison,1805 Medical Center Dr,San Bernardino,CA,92411,Verified,-117.32254,34.131285,General Medical & Surgical Hospitals,Hospitals
Del Amo Behavioral Health Syst,Lisa K,Montes,23700 Camino Del Sol,Torrance,CA,90505,Verified,-118.343728,33.810361,General Medical & Surgical Hospitals,Hospitals
Dominican Hospital,Nannette,Mickiewcz,1555 Soquel Dr,Santa Cruz,CA,95065,Verified,-121.983751,36.988375,General Medical & Surgical Hospitals,Hospitals
Enloe Medical Ctr,Deb,Strukan,560 Cohasset Rd,Chico,CA,95926,Verified,-121.847973,39.752216,General Medical & Surgical Hospitals,Hospitals
Feather River Hospital,Anthony,Nasr,5974 Pentz Rd,Paradise,CA,95969,Verified,-121.572286,39.75629,General Medical & Surgical Hospitals,Hospitals
Fremont Hospital,John C,Cooper,39001 Sundale Dr,Fremont,CA,94538,Verified,-121.979641,37.546583,General Medical & Surgical Hospitals,Hospitals
Gateways Hosp & Mental Health,Mara,Pelsman,1891 Effie St,Los Angeles,CA,90026,Verified,-118.256541,34.084317,General Medical & Surgical Hospitals,Hospitals
Glendale Adventist Medical Ctr,Kevin A,Roberts,1509 Wilson Ter,Glendale,CA,91206,Verified,-118.230471,34.149229,General Medical & Surgical Hospitals,Hospitals
Glendale Memorial Hosp & Hlth,Julie,Sprengel,1420 S Central Ave,Glendale,CA,91204,Verified,-118.257774,34.127843,General Medical & Surgical Hospitals,Hospitals
Henry Mayo Newhall Meml Hosp,Roger E,Seaver,23845 Mcbean Pkwy,Valencia,CA,91355,Verified,-118.553092,34.396399,General Medical & Surgical Hospitals,Hospitals
Heritage Oaks Hospital,Shawn,Silva,4250 Auburn Blvd,Sacramento,CA,95841,Verified,-121.365018,38.643776,General Medical & Surgical Hospitals,Hospitals
Humboldt County Mental Health,Jet L,DE Kruse,720 Wood St,Eureka,CA,95501,Verified,-124.160799,40.78082,General Medical & Surgical Hospitals,Hospitals
Huntington Beach Hospital,Kevan,Metcalfe,17772 Beach Blvd,Huntington Beach,CA,92647,Verified,-117.986453,33.703788,General Medical & Surgical Hospitals,Hospitals
John George Psych Hospital,,,2060 Fairmont Dr,San Leandro,CA,94578,Verified,-122.119975,37.710294,General Medical & Surgical Hospitals,Hospitals
John Muir Behavioral Health,Michael S,Thomas,2740 Grant St,Concord,CA,94520,Verified,-122.036923,37.985607,General Medical & Surgical Hospitals,Hospitals
Joyce Eisenberg-Keefer Med Ctr,Molly,Forrest,7150 Tampa Ave,Reseda,CA,91335,Verified,-118.552563,34.200092,General Medical & Surgical Hospitals,Hospitals
Kaiser Permanente West Los,Georgina R,Garcia,6041 Cadillac Ave,Los Angeles,CA,90034,Verified,-118.373513,34.038638,General Medical & Surgical Hospitals,Hospitals
LA Palma Intercommunity Hosp,Virgis,Narbutas,7901 Walker St,La Palma,CA,90623,Verified,-118.03727,33.847624,General Medical & Surgical Hospitals,Hospitals
Landmark Medical Ctr,Rosemary,Kilby,2030 N Garey Ave,Pomona,CA,91767,Verified,-117.752652,34.083512,General Medical & Surgical Hospitals,Hospitals
Las Encinas Hospital,Gerard,Conway,2900 E Del Mar Blvd,Pasadena,CA,91107,Verified,-118.091333,34.142152,General Medical & Surgical Hospitals,Hospitals
Los Alamitos Medical Ctr,Kent G,Clayton,3751 Katella Ave,Los Alamitos,CA,90720,Verified,-118.067365,33.803187,General Medical & Surgical Hospitals,Hospitals
Metropolitan State Hospital,Michael,Barsom,11401 Bloomfield Ave,Norwalk,CA,90650,Verified,-118.067399,33.923589,General Medical & Surgical Hospitals,Hospitals
Mills Health Ctr,Janet,Wagner,100 S San Mateo Dr # 4,San Mateo,CA,94401,Verified,-122.325382,37.565589,General Medical & Surgical Hospitals,Hospitals
Natividad Medical Ctr,Gary,Gray,1441 Constitution Blvd,Salinas,CA,93906,Verified,-121.633067,36.696236,General Medical & Surgical Hospitals,Hospitals
Newport Bay Hospital,James E,Parkhurst,1501 E 16th St,Newport Beach,CA,92663,Verified,-117.90758,33.622279,General Medical & Surgical Hospitals,Hospitals
Northridge Hospital Med Ctr,Saliba,Salo,18300 Roscoe Blvd,Northridge,CA,91325,Verified,-118.53419,34.220777,General Medical & Surgical Hospitals,Hospitals
Pacific Grove Hospital,Brent J,Bryson,5900 Brockton Ave,Riverside,CA,92506,Verified,-117.39519,33.962122,General Medical & Surgical Hospitals,Hospitals
Patton State Hospital,Harry,Oreol,3102 E Highland Ave,Patton,CA,92369,Verified,-117.167543,34.121061,General Medical & Surgical Hospitals,Hospitals
Porterville Developemental Ctr,Tereasa,Billici,26501 Avenue 140,Porterville,CA,93257,Verified,-118.979648,36.0417,General Medical & Surgical Hospitals,Hospitals
Rady Children's Hospital,Donald,Kearns,3020 Childrens Way,San Diego,CA,92123,Verified,-117.150809,32.797846,General Medical & Surgical Hospitals,Hospitals
Resnick Neuropsychiatric Hosp,Peter,Whybrow,150 Ucla Medical Plz,Los Angeles,CA,90024,Verified,-118.445844,34.065254,General Medical & Surgical Hospitals,Hospitals
San Diego County Psychiatric,Izabela,Karmach,3853 Rosecrans St,San Diego,CA,92110,Verified,-117.202017,32.753329,General Medical & Surgical Hospitals,Hospitals
San Gorgonio Memorial Hospital,Mark S,Turner,600 N Highland Springs Ave,Banning,CA,92220,Verified,-116.946888,33.932029,General Medical & Surgical Hospitals,Hospitals
Santa Barbara Psychiatric,Takashi,Wada,315 Camino Del Remedio,Santa Barbara,CA,93110,Verified,-119.780672,34.444379,General Medical & Surgical Hospitals,Hospitals
Santa Rosa Memorial Hospital,Todd,Salnas,1165 Montgomery Dr,Santa Rosa,CA,95405,Verified,-122.701107,38.442965,General Medical & Surgical Hospitals,Hospitals
Scripps Green Hospital,Robin,Brown,10666 N Torrey Pines Rd,La Jolla,CA,92037,Verified,-117.241926,32.89739,General Medical & Surgical Hospitals,Hospitals
Scripps Mercy Behavioral Hlth,Jerry,Gold,4077 5th Ave,San Diego,CA,92103,Verified,-117.160699,32.751466,General Medical & Surgical Hospitals,Hospitals
Scripps Mercy Hospital,Thomas A,Gammiere,4077 5th Ave,San Diego,CA,92103,Verified,-117.160992,32.751196,General Medical & Surgical Hospitals,Hospitals
Sharp Mesa Vista Hospital,Kathi,Lencioni,7850 Vista Hill Ave,San Diego,CA,92123,Verified,-117.155878,32.794914,General Medical & Surgical Hospitals,Hospitals
Sierra Vista Hospital,Mike,Zauner,8001 Bruceville Rd,Sacramento,CA,95823,Verified,-121.417123,38.466311,General Medical & Surgical Hospitals,Hospitals
Silver Lake Med Ctr-Ingleside,James,Press,7500 Hellman Ave,Rosemead,CA,91770,Verified,-118.105643,34.069403,General Medical & Surgical Hospitals,Hospitals
Southern CA Hospital-Van Nuys,Nina,Rosenseld,14433 Emelita St,Van Nuys,CA,91401,Verified,-118.447506,34.176788,General Medical & Surgical Hospitals,Hospitals
St Francis Memorial Hospital,Tom,Hennessey,900 Hyde St,San Francisco,CA,94109,Verified,-122.41702,37.789212,General Medical & Surgical Hospitals,Hospitals
St Helena Hosp-Ctr For Bhvrl,Edward A,Mc Donald,525 Oregon St,Vallejo,CA,94590,Verified,-122.249104,38.118145,General Medical & Surgical Hospitals,Hospitals
St Joseph's Behavioral Health,Paul,Rains,2510 N California St,Stockton,CA,95204,Verified,-121.291087,37.97648,General Medical & Surgical Hospitals,Hospitals
Telecare Heritage Psych Health,Anne L,Baker,2633 E 27th St,Oakland,CA,94601,Verified,-122.222154,37.790774,General Medical & Surgical Hospitals,Hospitals
Western Medical Ctr,Harmohinder,Gogia,1025 S Anaheim Blvd,Anaheim,CA,92805,Verified,-117.909813,33.81964,General Medical & Surgical Hospitals,Hospitals
Willow Rock Ctr,Anne L,Bakar,2050 Fairmont Dr,San Leandro,CA,94578,Verified,-122.118465,37.709749,General Medical & Surgical Hospitals,Hospitals
Woodland Healthcare,H Kevin,Vaziri,1325 Cottonwood St,Woodland,CA,95695,Verified,-121.793381,38.664226,General Medical & Surgical Hospitals,Hospitals
Alpha Behavioral Counseling,Ariel,Aguirre,2547 W Shaw Ave # 117,Fresno,CA,93711,Verified,-119.838555,36.807775,Home Health Care Services,Home Health Service
Anka Behavioral Health,Don,Cox,2100 State St,Hemet,CA,92543,Verified,-116.966897,33.712257,Home Health Care Services,Home Health Service
Anka Behavioral Health,,,340 Pablo Ln,Nipomo,CA,93444,Verified,-120.509918,35.015087,Home Health Care Services,Home Health Service
Anka Behavioral Health Inc,,,7515 Willow Way # 1,Citrus Heights,CA,95610,Verified,-121.289424,38.699129,Home Health Care Services,Home Health Service
Baker Places Inc,Jonathan,Vernick,120 Page St # 1,San Francisco,CA,94102,Verified,-122.422554,37.774113,Home Health Care Services,Home Health Service
Bay Area Behavioral Group,Jesse Thi,Lam,4423 Fortran Ct # 136,San Jose,CA,95134,Verified,-121.958268,37.420812,Home Health Care Services,Home Health Service
Behavior Analysts Intl LLC,,,6871 San Rafael Ct,Fontana,CA,92336,Verified,-117.4539,34.12915,Home Health Care Services,Home Health Service
Behavior Support Solutions,Katherine,Woodhouse,914 Parkman St,Altadena,CA,91001,Verified,-118.130445,34.199801,Home Health Care Services,Home Health Service
Behavioral Awareness,,,16501 Walnut St # 12,Hesperia,CA,92345,Verified,-117.302877,34.420336,Home Health Care Services,Home Health Service
Bienvenidos Children's Ctr,Miriam,Gonzalez,316 W 2nd St # 800,Los Angeles,CA,90012,Verified,-118.247481,34.052553,Home Health Care Services,Home Health Service
California's Best Home Health,Mari,Tes,1900 E LA Palma Ave # 204,Anaheim,CA,92805,Verified,-117.890859,33.846846,Home Health Care Services,Home Health Service
Center For Family Unity,Kellye,Laughery,3625 Ruffin Rd # 302,San Diego,CA,92123,Verified,-117.118562,32.809482,Home Health Care Services,Home Health Service
Central Star Behavioral Health,Peter,Zucker,2140 Merced St # 101,Fresno,CA,93721,Verified,-119.791629,36.73801,Home Health Care Services,Home Health Service
Class,,,424 Peninsula Ave,San Mateo,CA,94401,Verified,-122.33707,37.578603,Home Health Care Services,Home Health Service
Community Home Health,Paula,Guzman,1805 Medical Center Dr,San Bernardino,CA,92411,Verified,-117.321838,34.131344,Home Health Care Services,Home Health Service
Divine Care Hm Health Svc Inc,,,1985 Yosemite Ave # 250,Simi Valley,CA,93063,Verified,-118.678862,34.270997,Home Health Care Services,Home Health Service
Dmh Tay Bureau,Mc,Harris,550 S Vermont Ave # 4th,Los Angeles,CA,90020,Verified,-118.291378,34.064081,Home Health Care Services,Home Health Service
Integral Psychological,Angela A,Egbikuadje,5401 Business Park S # 124,Bakersfield,CA,93309,Verified,-119.059251,35.358319,Home Health Care Services,Home Health Service
J L Care,Julie,Dorres,7445 Cozycroft Ave,Winnetka,CA,91306,Verified,-118.582261,34.206036,Home Health Care Services,Home Health Service
Lighthouse Living Svc,Lynette,Jenkins,2750 N Texas St # 110,Fairfield,CA,94533,Verified,-122.033371,38.277362,Home Health Care Services,Home Health Service
Madera County Behavioral Hlth,,,115 N P St,Madera,CA,93637,Verified,-120.071272,36.954841,Home Health Care Services,Home Health Service
Matl-Bcba,Matthew A T,Lehman,361 Lambert Gln,Escondido,CA,92025,Verified,-117.092176,33.120456,Home Health Care Services,Home Health Service
Mental Health Systems,,,5121 Stockdale Hwy # 150,Bakersfield,CA,93309,Verified,-119.058923,35.353272,Home Health Care Services,Home Health Service
Mobile Health Consumer Inc,,,1730 S Amphlett Blvd # 144,San Mateo,CA,94402,Verified,-122.30241,37.557331,Home Health Care Services,Home Health Service
Olive Home Health Ctr,,,2222 W Manchester Blvd # B,Inglewood,CA,90305,Verified,-118.318642,33.959721,Home Health Care Services,Home Health Service
Optima Home Health Svc,,,2025 Chicago Ave # A12,Riverside,CA,92507,Verified,-117.349637,33.992887,Home Health Care Services,Home Health Service
Pacific Clinics,Lisa,Lansing,2550 E Foothill Blvd # 2nd,Pasadena,CA,91107,Verified,-118.09749,34.149789,Home Health Care Services,Home Health Service
Professional Care Home Health,Eddy,Vincecruz,1720 E Los Angeles Ave # 215,Simi Valley,CA,93065,Verified,-118.765492,34.270888,Home Health Care Services,Home Health Service
San Bernardino Home Health,Julie,Mill,1805 Medical Center Dr,San Bernardino,CA,92411,Verified,-117.321838,34.131344,Home Health Care Services,Home Health Service
Solutions Focused Behavioral,,,3210 Larchmont Dr,Stockton,CA,95209,Verified,-121.35696,38.04069,Home Health Care Services,Home Health Service
Starbright Home Health Svc Inc,Kayton,Dui,1633 Erringer Rd # 201a,Simi Valley,CA,93065,Verified,-118.762005,34.268153,Home Health Care Services,Home Health Service
Sunrise Homes,Lourdes,Gatchalian,306 N Vista St,Anaheim,CA,92801,Verified,-117.956361,33.841256,Home Health Care Services,Home Health Service
Turning Point Community Prgms,,,1001 Needham St,Modesto,CA,95354,Verified,-121.005374,37.645928,Home Health Care Services,Home Health Service
Vista Home Health Svc Inc,Edwin,Fernandez,9003 Reseda Blvd # 209,Northridge,CA,91324,Verified,-118.53668,34.233883,Home Health Care Services,Home Health Service
ADHD Therapy Ctr,,,1030 Sir Francis Drake Blvd,Kentfield,CA,94904,Verified,-122.549169,37.957536,Offices Of All Other Misc Health Practitioners,Psychologists
Advance Psychological Care,Mark,Sergi,11260 Wilbur Ave # 303,Northridge,CA,91326,Verified,-118.546394,34.274708,Offices Of All Other Misc Health Practitioners,Psychologists
Affiliated Psychological Svc,Daniel D,Shirbroun,7293 Dumosa Ave # 8,Yucca Valley,CA,92284,Verified,-116.417361,34.120866,Offices Of All Other Misc Health Practitioners,Psychologists
Ain Roost,Ain,Roost,4180 LA Jolla Village Dr # 250,La Jolla,CA,92037,Verified,-117.216807,32.872563,Offices Of All Other Misc Health Practitioners,Psychologists
Alpert & Assoc,,,14150 Culver Dr # 206,Irvine,CA,92604,Verified,-117.783985,33.708254,Offices Of All Other Misc Health Practitioners,Psychologists
Alpine Counseling Ctr,,,375 E Line St,Bishop,CA,93514,Verified,-118.3896,37.361584,Offices Of All Other Misc Health Practitioners,Psychologists
Andrew Leeds,Andrew M,Leeds,1049 4th St # G,Santa Rosa,CA,95404,Verified,-122.70606,38.44449,Offices Of All Other Misc Health Practitioners,Psychologists
Anxiety Research Ctr,,,26800 Crown Valley Pkwy # 455,Mission Viejo,CA,92691,Verified,-117.667141,33.562418,Offices Of All Other Misc Health Practitioners,Psychologists
Applied Interventions,Sandy,Shaw,6540 Lusk Blvd # C256,San Diego,CA,92121,Verified,-117.201848,32.901189,Offices Of All Other Misc Health Practitioners,Psychologists
Arcata Counseling Svc,Jennifer F,Taylor,1062 G St,Arcata,CA,95521,Verified,-124.084837,40.869984,Offices Of All Other Misc Health Practitioners,Psychologists
Arcata Counseling Svc,,,1062 G St,Arcata,CA,95521,Verified,-124.084837,40.869984,Offices Of All Other Misc Health Practitioners,Psychologists
Associates In Clinical Therapy,James L,Schaefer,22231 Mulholland Hwy # 106,Calabasas,CA,91302,Verified,-118.613067,34.14834,Offices Of All Other Misc Health Practitioners,Psychologists
Axis Community Health,Sue,Compton,4361 Railroad Ave # A,Pleasanton,CA,94566,Verified,-121.874199,37.661622,Offices Of All Other Misc Health Practitioners,Psychologists
Baringoldz,Greg M,Baringoldz,3605 Long Beach Blvd # 329,Long Beach,CA,90807,Verified,-118.189732,33.822693,Offices Of All Other Misc Health Practitioners,Psychologists
Becker Psycological Svc,Vance B,Becker,1451 Quail St # 102,Newport Beach,CA,92660,Verified,-117.869347,33.660665,Offices Of All Other Misc Health Practitioners,Psychologists
Behavioral Medicine Group,Linda,Pascuzzo,3805 Union Ave,Bakersfield,CA,93305,Verified,-119.003021,35.39432,Offices Of All Other Misc Health Practitioners,Psychologists
"Buckley, Lisa Phd",Lisa,Buckley,1991 Village Park Way # 202,Encinitas,CA,92024,Verified,-117.245283,33.053173,Offices Of All Other Misc Health Practitioners,Psychologists
"Budner, Teri W",Teri W,Budner,2101 N Main St # D,Santa Ana,CA,92706,Verified,-117.867123,33.763981,Offices Of All Other Misc Health Practitioners,Psychologists
California Counseling Ctr,,,10630 Town Center Dr # 124,Rancho Cucamonga,CA,91730,Verified,-117.572221,34.111262,Offices Of All Other Misc Health Practitioners,Psychologists
California Spectrum Svc,Nick,Garcia,841 Mohawk St # 120,Bakersfield,CA,93309,Verified,-119.062526,35.361731,Offices Of All Other Misc Health Practitioners,Psychologists
Care More Health Plan,,,7324 Painter Ave,Whittier,CA,90602,Verified,-118.036142,33.97119,Offices Of All Other Misc Health Practitioners,Psychologists
Caring Counseling,Harvey J,Feinman,2125 S El Camino Real # 206,Oceanside,CA,92054,Verified,-117.328614,33.188988,Offices Of All Other Misc Health Practitioners,Psychologists
CDF Psychological Corp,Jorge,Canseco,12448 Washington Blvd,Whittier,CA,90602,Verified,-118.046758,33.967488,Offices Of All Other Misc Health Practitioners,Psychologists
Center For Conscious Living,,,,Huntington Beach,CA,92647,Verified,-118.003865,33.721675,Offices Of All Other Misc Health Practitioners,Psychologists
Central Psychology Svc,Jeanne,Abbott,3300 Tully Rd # C1,Modesto,CA,95350,Verified,-121.011647,37.686078,Offices Of All Other Misc Health Practitioners,Psychologists
"Cerri, Mark Phd",Mark,Cerri,,Ukiah,CA,95482,Verified,-123.316337,39.234306,Offices Of All Other Misc Health Practitioners,Psychologists
Change With Reach,Anna,Gershellis,17777 Ventura Blvd # 105,Encino,CA,91316,Verified,-118.519783,34.163195,Offices Of All Other Misc Health Practitioners,Psychologists
Children's Psychological Svc,,,3646 24th St,San Francisco,CA,94110,Verified,-122.423929,37.751959,Offices Of All Other Misc Health Practitioners,Psychologists
Clinical & Forensic Psychology,Randolph A,Nutter,950 County Square Dr # 115,Ventura,CA,93003,Verified,-119.214165,34.266619,Offices Of All Other Misc Health Practitioners,Psychologists
Comprehensive Psychological,David,Freeman,1010 N Central Ave # 302,Glendale,CA,91202,Verified,-118.256831,34.160011,Offices Of All Other Misc Health Practitioners,Psychologists
Cortex Behavioral Health,Ellen,Shirman,17525 Ventura Blvd # 307,Encino,CA,91316,Verified,-118.515273,34.162371,Offices Of All Other Misc Health Practitioners,Psychologists
Craig Kain Phd Psychologist,Craig,Kain,3416 E Broadway # A,Long Beach,CA,90803,Verified,-118.151971,33.764395,Offices Of All Other Misc Health Practitioners,Psychologists
"Cross, Karen Phd",Karen,Cross,3252 Holiday Ct,La Jolla,CA,92037,Verified,-117.232605,32.870896,Offices Of All Other Misc Health Practitioners,Psychologists
"De Francisco, Jennifer",Jennifer,DE Francisco,1601 Dove St # 230,Newport Beach,CA,92660,Verified,-117.866566,33.664152,Offices Of All Other Misc Health Practitioners,Psychologists
"Decker, Debra Phd",Debra,Decker,1687 Erringer Rd # 108,Simi Valley,CA,93065,Verified,-118.762345,34.26879,Offices Of All Other Misc Health Practitioners,Psychologists
"Diaz, Norma P",Norma P,Diaz,10428 Lower Azusa Rd,El Monte,CA,91731,Verified,-118.040412,34.091896,Offices Of All Other Misc Health Practitioners,Psychologists
Dr Daniel C Minton MD,Daniel C,Minton,2730 Wilshire Blvd # 275,Santa Monica,CA,90403,Verified,-118.475435,34.036837,Offices Of All Other Misc Health Practitioners,Psychologists
Dr Nagar Med Psychology Ctr,Ziva,Nagar,14901 Rinaldi St # 335,Mission Hills,CA,91345,Verified,-118.457344,34.279514,Offices Of All Other Misc Health Practitioners,Psychologists
Dr Stephanie Hunter Jones,Stephanie,Hunter Jones,5782 Hesperia Ave,Encino,CA,91316,Verified,-118.525981,34.176153,Offices Of All Other Misc Health Practitioners,Psychologists
Educational Psychology,,,1810 Grand Canal Blvd # 1,Stockton,CA,95207,Verified,-121.328101,37.98617,Offices Of All Other Misc Health Practitioners,Psychologists
Eva P Hunting Phd,Eva P,Hunting,2055 Anderson Rd # A,Davis,CA,95616,Verified,-121.759123,38.561909,Offices Of All Other Misc Health Practitioners,Psychologists
Focus Psychological Svc,,,444 Camino Del Rio S # 214,San Diego,CA,92108,Verified,-117.160678,32.761755,Offices Of All Other Misc Health Practitioners,Psychologists
Fox David Phd Inc,,,8370 Wilshire Blvd,Beverly Hills,CA,90211,Verified,-118.373846,34.064552,Offices Of All Other Misc Health Practitioners,Psychologists
Garett & Assoc,Kenneth,Garett,225 S Civic Dr # 2-11,Palm Springs,CA,92262,Verified,-116.513123,33.821867,Offices Of All Other Misc Health Practitioners,Psychologists
Geisz Thomas Eric,Richard N,Weisberg,30131 Town Center Dr # 280,Laguna Niguel,CA,92677,Verified,-117.715228,33.525617,Offices Of All Other Misc Health Practitioners,Psychologists
"Girvetz, Jon Phd",Jon,Girvetz,550 Water St # F3,Santa Cruz,CA,95060,Verified,-122.018919,36.978857,Offices Of All Other Misc Health Practitioners,Psychologists
"Griffin, Cynthia Phd",Cynthia,Griffin,188 Cerro Ct,San Luis Obispo,CA,93405,Verified,-120.68576,35.295116,Offices Of All Other Misc Health Practitioners,Psychologists
Group Therapy Ctr,Milton,Shapiro,7610 Woodrow Wilson Dr,Los Angeles,CA,90046,Verified,-118.361739,34.122268,Offices Of All Other Misc Health Practitioners,Psychologists
"Grover, Edward Phd",Edward,Grover,129 E Branch St # A,Arroyo Grande,CA,93420,Verified,-120.578196,35.123735,Offices Of All Other Misc Health Practitioners,Psychologists
"Hardesty, Jean A Phd",Jean A,Hardesty,6345 Balboa Blvd # 212,Encino,CA,91316,Verified,-118.503211,34.186207,Offices Of All Other Misc Health Practitioners,Psychologists
Hellwig's Psychological Svc,David,Hellwig,1357 W Shaw Ave,Fresno,CA,93711,Verified,-119.816327,36.808089,Offices Of All Other Misc Health Practitioners,Psychologists
"Hernandez, Joseph L Phd",Joseph L,Hernandez,4643 Broadway,Salida,CA,95368,Verified,-121.085121,37.706331,Offices Of All Other Misc Health Practitioners,Psychologists
Hope Psychiatric Med Svc Inc,Bushra,Akber,250 W 1st St # 214,Claremont,CA,91711,Verified,-117.718052,34.094255,Offices Of All Other Misc Health Practitioners,Psychologists
Innovative Business Dynamics,Wiley B,Johnson,19700 Fairchild # 285,Irvine,CA,92612,Verified,-117.859626,33.656451,Offices Of All Other Misc Health Practitioners,Psychologists
Institute For Relationship Dev,David M,Aronson,30101 Town Center Dr # 109,Laguna Niguel,CA,92677,Verified,-117.714334,33.526242,Offices Of All Other Misc Health Practitioners,Psychologists
Integrated Psychological Svc,,,30101 Town Center Dr # 201,Laguna Niguel,CA,92677,Verified,-117.714334,33.526242,Offices Of All Other Misc Health Practitioners,Psychologists
Irvine Family Therapy,Hegi,Khajavi,14351 Red Hill Ave # C,Tustin,CA,92780,Verified,-117.819642,33.729656,Offices Of All Other Misc Health Practitioners,Psychologists
Irwin Hoffman Ph D,Irwin,Hoffman,1240 S Westlake Blvd # 211,Westlake Village,CA,91361,Verified,-118.837673,34.14925,Offices Of All Other Misc Health Practitioners,Psychologists
Jackson Jacqueline Phd,Jacqueline,Jackson,800 Menlo Ave # 209,Menlo Park,CA,94025,Verified,-122.184445,37.450066,Offices Of All Other Misc Health Practitioners,Psychologists
"Josephson, Susan Cook Phd",Susan Cook,Josephson,555 Pointe Dr # 205,Brea,CA,92821,Verified,-117.879215,33.928116,Offices Of All Other Misc Health Practitioners,Psychologists
Joyce B Ashley M D,B Joyce,Ashley,219 Nogales Ave # D,Santa Barbara,CA,93105,Verified,-119.721668,34.43208,Offices Of All Other Misc Health Practitioners,Psychologists
Kairos Psychology Group,,,160 Franklin St,Oakland,CA,94607,Verified,-122.27505,37.795241,Offices Of All Other Misc Health Practitioners,Psychologists
KARR Elaine S Phd,Elaine,Karr,11850 Wilshire Blvd # 200a,Los Angeles,CA,90025,Verified,-118.463416,34.047033,Offices Of All Other Misc Health Practitioners,Psychologists
"Kasper, Laura B Phd",Laura B,Kasper,582 Market St # 716,San Francisco,CA,94104,Verified,-122.401543,37.789392,Offices Of All Other Misc Health Practitioners,Psychologists
Kearny Mesa Psychological Svc,Bapsi A,Slali,3645 Ruffin Rd # 205,San Diego,CA,92123,Verified,-117.119019,32.810135,Offices Of All Other Misc Health Practitioners,Psychologists
"Kopley, Margot B Phd",Margot B,Kopley,741 Garden View Ct,Encinitas,CA,92024,Verified,-117.260581,33.059676,Offices Of All Other Misc Health Practitioners,Psychologists
"Kramer, Shelley C Phd",Shelley C,Kramer,2181 S El Camino Real # 205,Oceanside,CA,92054,Verified,-117.328736,33.187716,Offices Of All Other Misc Health Practitioners,Psychologists
"Kramer, Shelley C Phd",Shelley C,Kramer,591 Camino DE LA Reina,San Diego,CA,92108,Verified,-117.161406,32.765729,Offices Of All Other Misc Health Practitioners,Psychologists
Law-Greenburg Claudia,Claudia,Law-Greenburg,8899 University Center Ln # 17,San Diego,CA,92122,Verified,-117.22759,32.869945,Offices Of All Other Misc Health Practitioners,Psychologists
Leifer Errol F Phd Inc,Errol F,Leifer,3443 W Shaw Ave,Fresno,CA,93711,Verified,-119.854393,36.805341,Offices Of All Other Misc Health Practitioners,Psychologists
"Lerner-Baron, Sharon Phd",Sharon,Lerner-Baron,,San Diego,CA,92121,Verified,-117.198521,32.894378,Offices Of All Other Misc Health Practitioners,Psychologists
"Lille, Jeffrey J Phd",Jeffrey J,Lille,11573 Los Osos Valley Rd # D,San Luis Obispo,CA,93405,Verified,-120.691658,35.256889,Offices Of All Other Misc Health Practitioners,Psychologists
Linda L Adams Psyd,Linda L,Adams,250 W 1st St,Claremont,CA,91711,Verified,-117.718052,34.094255,Offices Of All Other Misc Health Practitioners,Psychologists
Linder Psychiatric Group Inc,,,508 Gibson Dr,Roseville,CA,95678,Verified,-121.273638,38.779174,Offices Of All Other Misc Health Practitioners,Psychologists
Lisa Neuenschwander Ph D,Lisa,Neuenschwander,900 Los Osos Valley Rd # C,Los Osos,CA,93402,Verified,-120.83474,35.311672,Offices Of All Other Misc Health Practitioners,Psychologists
"Malde, Susan Phd",Susan,Malde,1187 Coast Village Rd # 10k,Santa Barbara,CA,93108,Verified,-119.64498,34.420675,Offices Of All Other Misc Health Practitioners,Psychologists
Manning Psychological Svc,Bradley,Manning,146 Main St # 213,Los Altos,CA,94022,Verified,-122.115218,37.379637,Offices Of All Other Misc Health Practitioners,Psychologists
Mariya Kholodova Ph D,Mariya,Kholodova,3636 4th Ave # 302,San Diego,CA,92103,Verified,-117.161896,32.743965,Offices Of All Other Misc Health Practitioners,Psychologists
Meg Stein Psy D,Meg,Stein,55 New Montgomery St # 305,San Francisco,CA,94105,Verified,-122.401131,37.788109,Offices Of All Other Misc Health Practitioners,Psychologists
Megan Lehmer Ph D,Megan,Lehmer,1131 Irving St,San Francisco,CA,94122,Verified,-122.470176,37.763824,Offices Of All Other Misc Health Practitioners,Psychologists
Michael Perrotti Inc,,,18200 Yorba Linda Blvd # 109a,Placentia,CA,92870,Verified,-117.857673,33.879483,Offices Of All Other Misc Health Practitioners,Psychologists
Mindful Behavioral Strategies,Barbara A,Morris Jensen,1601 Carmen Dr # 211,Camarillo,CA,93010,Verified,-119.051864,34.232712,Offices Of All Other Misc Health Practitioners,Psychologists
Miracle Mile Cmnty Practice,David,Marsten,7461 Beverly Blvd # 405,Los Angeles,CA,90036,Verified,-118.352654,34.076195,Offices Of All Other Misc Health Practitioners,Psychologists
"Morton, Susan B Phd",Susan B,Morton,6097 Claremont Ave,Oakland,CA,94618,Verified,-122.252606,37.849207,Offices Of All Other Misc Health Practitioners,Psychologists
MRI Clinic,Mary Ann,Norfleet,555 Middlefield Rd,Palo Alto,CA,94301,Verified,-122.155913,37.450197,Offices Of All Other Misc Health Practitioners,Psychologists
"Muse, Jeri Phd",Jeri,Muse,3033 5th Ave # 220,San Diego,CA,92103,Verified,-117.160042,32.737007,Offices Of All Other Misc Health Practitioners,Psychologists
"Netter, Beatriz Phd",Beatriz,Netter,3252 Holiday Ct # 100,La Jolla,CA,92037,Verified,-117.232605,32.870896,Offices Of All Other Misc Health Practitioners,Psychologists
"Netter, Roberto Phd",Roberto,Netter,3252 Holiday Ct # 100,La Jolla,CA,92037,Verified,-117.232605,32.870896,Offices Of All Other Misc Health Practitioners,Psychologists
Neurobehavioral Clinic,David,Lechuga,13 Orchard # 103,Lake Forest,CA,92630,Verified,-117.672888,33.670745,Offices Of All Other Misc Health Practitioners,Psychologists
"Newton, Ruth Phd",Ruth,Newton,3252 Holiday Ct # 109,La Jolla,CA,92037,Verified,-117.232605,32.870896,Offices Of All Other Misc Health Practitioners,Psychologists
Ortho Med Group Of Riverside,Abrham,Argun,6800 Brockton Ave # 2,Riverside,CA,92506,Verified,-117.396132,33.949733,Offices Of All Other Misc Health Practitioners,Psychologists
Pacific Biobehavioral Group,,,2516 Samaritan Dr # G,San Jose,CA,95124,Verified,-121.950856,37.251717,Offices Of All Other Misc Health Practitioners,Psychologists
Pacific Psychological Assoc,Constance,Brunig,4036 3rd Ave,San Diego,CA,92103,Verified,-117.163104,32.750635,Offices Of All Other Misc Health Practitioners,Psychologists
Pacific Psychological Assoc,David B,Wexler,4036 3rd Ave,San Diego,CA,92103,Verified,-117.163104,32.750635,Offices Of All Other Misc Health Practitioners,Psychologists
Palomar Pomerado Behavioral,Karen,Sommerfeld,125 Vallecitos DE Oro # A,San Marcos,CA,92069,Verified,-117.180345,33.140689,Offices Of All Other Misc Health Practitioners,Psychologists
Paul Depompo Psy D Assoc A Pro,Paul,Depompo,4667 Macarthur Blvd # 320,Newport Beach,CA,92660,Verified,-117.864886,33.670861,Offices Of All Other Misc Health Practitioners,Psychologists
PCSD,,,4542 Ruffner St # 200,San Diego,CA,92111,Verified,-117.157693,32.823057,Offices Of All Other Misc Health Practitioners,Psychologists
Pert Inc,Christina L,Delano,1094 Cudahy Pl # 314,San Diego,CA,92110,Verified,-117.201327,32.767501,Offices Of All Other Misc Health Practitioners,Psychologists
Piciucco Luigi Phd Qme,Luigi,Piciucco,9700 Business Park Dr # 207,Sacramento,CA,95827,Verified,-121.33442,38.568649,Offices Of All Other Misc Health Practitioners,Psychologists
"Pockros, Ann W Phd",Ann W,Pockros,4180 LA Jolla Village Dr,La Jolla,CA,92037,Verified,-117.216807,32.872563,Offices Of All Other Misc Health Practitioners,Psychologists
"Ponce, Francisco Q Phd",Francisco Q,Ponce,1150 Main St # 9,Watsonville,CA,95076,Verified,-121.769409,36.917015,Offices Of All Other Misc Health Practitioners,Psychologists
Psych Strategies,Judy,House,25 Western Ave,Petaluma,CA,94952,Verified,-122.640909,38.233681,Offices Of All Other Misc Health Practitioners,Psychologists
Psychiatric Centers-San Diego,Robin,Alldis,9850 Genesee Ave # 970,La Jolla,CA,92037,Verified,-117.226168,32.882983,Offices Of All Other Misc Health Practitioners,Psychologists
Psychiatric Medical Group,Helen,Schorr,3425 Coffee Rd # A2,Modesto,CA,95355,Verified,-120.976589,37.687686,Offices Of All Other Misc Health Practitioners,Psychologists
Psychiatric Office Mangement,,,8772 Cuyamaca St,Santee,CA,92071,Verified,-116.984647,32.835251,Offices Of All Other Misc Health Practitioners,Psychologists
Psychiatry Consultation Assoc,Yuval,Estrov,4225 Executive Sq # 1130,La Jolla,CA,92037,Verified,-117.215675,32.873811,Offices Of All Other Misc Health Practitioners,Psychologists
Psychological Consultants,Thomas,O'Shea,741 Garden View Ct # 105,Encinitas,CA,92024,Verified,-117.260581,33.059676,Offices Of All Other Misc Health Practitioners,Psychologists
Psychological Service,Gloria M,Shurman,9834 Genesee Ave # 427,La Jolla,CA,92037,Verified,-117.225846,32.884186,Offices Of All Other Misc Health Practitioners,Psychologists
Psychotherapy Institute Inc,Linda,Webster,509 W 10th St,Antioch,CA,94509,Verified,-121.813066,38.010836,Offices Of All Other Misc Health Practitioners,Psychologists
"Pugh, James M Phd",James M,Pugh,2030 E 4th St # 231c,Santa Ana,CA,92705,Verified,-117.837745,33.747553,Offices Of All Other Misc Health Practitioners,Psychologists
Rachel Negar Partiali Ph D,,,2730 Wilshire Blvd # 630,Santa Monica,CA,90403,Verified,-118.475435,34.036837,Offices Of All Other Misc Health Practitioners,Psychologists
"Robbins, S Tara Phd",S Tara,Robbins,301 LA Canada St,La Jolla,CA,92037,Verified,-117.273604,32.81956,Offices Of All Other Misc Health Practitioners,Psychologists
Roybal Family Mental Health,Steven,Hendrickson,4701 E Cesar E Chavez Ave,Los Angeles,CA,90022,Verified,-118.16418,34.040899,Offices Of All Other Misc Health Practitioners,Psychologists
"Rudenberg, Murray",Murray,Rudenberg,2423 Camino Del Rio S # 106,San Diego,CA,92108,Verified,-117.138292,32.76809,Offices Of All Other Misc Health Practitioners,Psychologists
San Diego Psychological Ctr,Pezeshk,Banafsheh,15525 Pomerado Rd # B3,Poway,CA,92064,Verified,-117.057195,32.995007,Offices Of All Other Misc Health Practitioners,Psychologists
San Fernando Valley Counseling,Carol,Bronow,8350 Reseda Blvd,Northridge,CA,91324,Verified,-118.535418,34.222344,Offices Of All Other Misc Health Practitioners,Psychologists
San Francisco Institute,Stephen D,Karr,3702 Sacramento St # 1,San Francisco,CA,94118,Verified,-122.453635,37.787381,Offices Of All Other Misc Health Practitioners,Psychologists
San Francisco Stress & Anxiety,Jonathan,Horowitz,55 New Montgomery St # 512,San Francisco,CA,94105,Verified,-122.401131,37.788109,Offices Of All Other Misc Health Practitioners,Psychologists
San Francisco Stress & Anxiety,,,1190 Lincoln Ave # 7,San Jose,CA,95125,Verified,-121.899628,37.307145,Offices Of All Other Misc Health Practitioners,Psychologists
Santa Rosa Ctr For Cognitive,,,613 College Ave,Santa Rosa,CA,95404,Verified,-122.715455,38.445907,Offices Of All Other Misc Health Practitioners,Psychologists
"Schmidt, Jeffrey Phd",Jeffrey,Schmidt,3405 Kenyon St,San Diego,CA,92110,Verified,-117.213843,32.748082,Offices Of All Other Misc Health Practitioners,Psychologists
Sleepwise Sleep & Behavioral,Nicole S,Walters,1801 E Tahquitz Canyon Way # 2,Palm Springs,CA,92262,Verified,-116.526568,33.822132,Offices Of All Other Misc Health Practitioners,Psychologists
Southern Ca Neuro Psychology,Michelle,Conover,21031 Ventura Blvd # 704,Woodland Hills,CA,91364,Verified,-118.591751,34.167251,Offices Of All Other Misc Health Practitioners,Psychologists
"Spielberg, Gil Phd",Gil,Spielberg,7816 Ivanhoe Ave # 13,La Jolla,CA,92037,Verified,-117.272047,32.845956,Offices Of All Other Misc Health Practitioners,Psychologists
Stephanie Moore Psychiatry,Stephanie,Moore,801 N Tustin Ave # 505,Santa Ana,CA,92705,Verified,-117.833075,33.752206,Offices Of All Other Misc Health Practitioners,Psychologists
"Sterling, Dianne",Dianne,Sterling,111 Chesterfield Dr # 121,Cardiff By The Sea,CA,92007,Verified,-117.280916,33.019602,Offices Of All Other Misc Health Practitioners,Psychologists
"Stott, Shauna Phd",Shauna,Stott,220 Country Club Gate Ctr # 16,Pacific Grove,CA,93950,Verified,-121.925766,36.60787,Offices Of All Other Misc Health Practitioners,Psychologists
"Studden, Kathi",Kathi,Studden,25115 Avenue Stanford # 120,Santa Clarita,CA,91355,Verified,-118.575965,34.436853,Offices Of All Other Misc Health Practitioners,Psychologists
Sullivan Center For Children,David A,Fox,3443 W Shaw Ave,Fresno,CA,93711,Verified,-119.854393,36.805341,Offices Of All Other Misc Health Practitioners,Psychologists
Sullivan Center For Children,Laurie,Rabens,3443 W Shaw Ave,Fresno,CA,93711,Verified,-119.854393,36.805341,Offices Of All Other Misc Health Practitioners,Psychologists
Sullivan Center For Children,Mark,Barnes,3443 W Shaw Ave,Fresno,CA,93711,Verified,-119.854393,36.805341,Offices Of All Other Misc Health Practitioners,Psychologists
Sunny Place Of Stockton,Espie,Vierra,807 W Swain Rd,Stockton,CA,95207,Verified,-121.320557,38.004492,Offices Of All Other Misc Health Practitioners,Psychologists
"Taubold, Scott Phd",Scott,Taubold,347 Cypress St,Fort Bragg,CA,95437,Verified,-123.802656,39.43288,Offices Of All Other Misc Health Practitioners,Psychologists
Teri Cortland Psy D,Teri,Cortland,77935 Calle Tampico # 204,La Quinta,CA,92253,Verified,-116.30479,33.677738,Offices Of All Other Misc Health Practitioners,Psychologists
"Thomas, Veronica A",Veronica A,Thomas,17662 Irvine Blvd # 11,Tustin,CA,92780,Verified,-117.824097,33.748073,Offices Of All Other Misc Health Practitioners,Psychologists
Three Rivers Mindfulness,,,418 Alhambra Blvd # B,Sacramento,CA,95816,Verified,-121.46298,38.578786,Offices Of All Other Misc Health Practitioners,Psychologists
"Tufenkjian, Sylvia A Phd",Sylvia A,Tufenkjian,2542 Turner Rd,Ceres,CA,95307,Verified,-120.949031,37.561773,Offices Of All Other Misc Health Practitioners,Psychologists
U C Berkeley Psychology Clinic,,,2205 Tolman Hall,Berkeley,CA,94720,Verified,-122.260288,37.868587,Offices Of All Other Misc Health Practitioners,Psychologists
University Psychological Assoc,,,425 University Ave # 1,Sacramento,CA,95825,Verified,-121.418483,38.570391,Offices Of All Other Misc Health Practitioners,Psychologists
UPAC Counseling & Treatment,Dixie L,Galapon,5348 University Ave # 101,San Diego,CA,92105,Verified,-117.080755,32.74958,Offices Of All Other Misc Health Practitioners,Psychologists
Valencia Counseling Assoc,Lisa,Dyck,28494 Westinghouse Pl # 214,Valencia,CA,91355,Verified,-118.598688,34.442825,Offices Of All Other Misc Health Practitioners,Psychologists
Valley Coordinated Children's,Melanie A,Leland,19231 Victory Blvd # 110,Reseda,CA,91335,Verified,-118.5525,34.187232,Offices Of All Other Misc Health Practitioners,Psychologists
Veterans Counseling Clinic,Allenm,Middleton,4126 S Demaree St # B,Visalia,CA,93277,Verified,-119.330411,36.293502,Offices Of All Other Misc Health Practitioners,Psychologists
Virtual Reality Medical Ctr,Mark,Williams,6540 Lusk Blvd # C115,San Diego,CA,92121,Verified,-117.201848,32.901189,Offices Of All Other Misc Health Practitioners,Psychologists
"Weinstein, Elliot Phd",Elliot,Weinstein,2900 4th Ave # 200,San Diego,CA,92103,Verified,-117.161302,32.73566,Offices Of All Other Misc Health Practitioners,Psychologists
West End Family Counseling Svc,Luvina,Beckley,855 N Euclid Ave,Ontario,CA,91762,Verified,-117.651674,34.074068,Offices Of All Other Misc Health Practitioners,Psychologists
Achieve Tms Ctr,,,4510 Executive Dr # 115,San Diego,CA,92121,Verified,-117.210896,32.875837,Offices Of Mental Health Physicians,Psychiatry-Adult Child & Adolescent
Adult Psychiatry,Kim,Hudson,5755 Cottle Rd # 4,San Jose,CA,95123,Verified,-121.804943,37.247209,Offices Of Mental Health Physicians,Psychiatry-Adult Child & Adolescent
Arjun C Reyes MD & Assoc,Arjun,Reyes,893 Patriot Dr # A,Moorpark,CA,93021,Verified,-118.863003,34.27907,Offices Of Mental Health Physicians,Psychiatry-Adult Child & Adolescent
Beber Jorge H M D,Jorge H,Beber,3449 S Demaree St # B,Visalia,CA,93277,Verified,-119.332301,36.298729,Offices Of Mental Health Physicians,Psychiatry-Adult Child & Adolescent
Behavioral Health Svc,Jerry R,Ainsworth,576 Hartnell St # 300,Monterey,CA,93940,Verified,-121.896047,36.59523,Offices Of Mental Health Physicians,Psychiatry-Adult Child & Adolescent
Betterpsychiatry,,,933 S Sunset Ave # 305,West Covina,CA,91790,Verified,-117.942656,34.064785,Offices Of Mental Health Physicians,Psychiatry-Adult Child & Adolescent
Ethan G Harris Inc,,,1624 Starr Dr # 1,Yuba City,CA,95993,Verified,-121.645225,39.143114,Offices Of Mental Health Physicians,Psychiatry-Adult Child & Adolescent
"Fein, Deborah MD",Deborah,Fein,12057 Jefferson Blvd,Culver City,CA,90230,Verified,-118.406579,33.982937,Offices Of Mental Health Physicians,Psychiatry-Adult Child & Adolescent
Forensic Psychiatry Clinic,David,Naimark,220 W Broadway # 1003,San Diego,CA,92101,Verified,-117.165038,32.71613,Offices Of Mental Health Physicians,Psychiatry-Adult Child & Adolescent
Hillcrest-140 Arbor Drive,Louisa,Steiger,140 Arbor Dr,San Diego,CA,92103,Verified,-117.163636,32.754241,Offices Of Mental Health Physicians,Psychiatry-Adult Child & Adolescent
Hillcrest-Uc San Diego Med Ctr,Sanjaya,Saxena,200 W Arbor Dr # 92103,San Diego,CA,92103,Verified,-117.165928,32.754188,Offices Of Mental Health Physicians,Psychiatry-Adult Child & Adolescent
Humboldt Cnty Alcohol & Drug,Asha,George,720 Wood St,Eureka,CA,95501,Verified,-124.160799,40.78082,Offices Of Mental Health Physicians,Psychiatry-Adult Child & Adolescent
Kaiser Mental Behavioral Hlth,Daniel R,Bennett,18040 Sherman Way,Reseda,CA,91335,Verified,-118.526708,34.200101,Offices Of Mental Health Physicians,Psychiatry-Adult Child & Adolescent
Kaiser Mental Behavioral Hlth,Susan,Wallace,18040 Sherman Way,Reseda,CA,91335,Verified,-118.526708,34.200101,Offices Of Mental Health Physicians,Psychiatry-Adult Child & Adolescent
Kaiser Mental Behavioral Hlth,Nolan H,Thompson,18040 Sherman Way,Reseda,CA,91335,Verified,-118.526708,34.200101,Offices Of Mental Health Physicians,Psychiatry-Adult Child & Adolescent
Kaiser Mental Behavioral Hlth,Nima,Akhavan,18040 Sherman Way,Reseda,CA,91335,Verified,-118.526708,34.200101,Offices Of Mental Health Physicians,Psychiatry-Adult Child & Adolescent
Kaiser Mental Behavioral Hlth,Mary,Igo,18040 Sherman Way,Reseda,CA,91335,Verified,-118.526708,34.200101,Offices Of Mental Health Physicians,Psychiatry-Adult Child & Adolescent
Kaiser Mental Behavioral Hlth,Saba,Notghi,18040 Sherman Way # 3,Reseda,CA,91335,Verified,-118.526708,34.200101,Offices Of Mental Health Physicians,Psychiatry-Adult Child & Adolescent
Kaiser Permanente 4700 Sunset,David G,Reynolds,4700 W Sunset Blvd,Los Angeles,CA,90027,Verified,-118.291815,34.098129,Offices Of Mental Health Physicians,Psychiatry-Adult Child & Adolescent
Kaiser Permanente 4700 Sunset,Vy V,Doan,4700 W Sunset Blvd,Los Angeles,CA,90027,Verified,-118.291815,34.098129,Offices Of Mental Health Physicians,Psychiatry-Adult Child & Adolescent
Kaiser Permanente 4700 Sunset,Paul Edward,Hartman,4700 W Sunset Blvd,Los Angeles,CA,90027,Verified,-118.291815,34.098129,Offices Of Mental Health Physicians,Psychiatry-Adult Child & Adolescent
Kaiser Permanente 4700 Sunset,Adrian D,Mirea,4700 W Sunset Blvd,Los Angeles,CA,90027,Verified,-118.291815,34.098129,Offices Of Mental Health Physicians,Psychiatry-Adult Child & Adolescent
Kaiser Permanente 4700 Sunset,Ann E,Mcintosh,4700 W Sunset Blvd,Los Angeles,CA,90027,Verified,-118.291815,34.098129,Offices Of Mental Health Physicians,Psychiatry-Adult Child & Adolescent
Kaiser Permanente 4700 Sunset,Stephanie,Shaner,4700 W Sunset Blvd # 1st,Los Angeles,CA,90027,Verified,-118.291815,34.098129,Offices Of Mental Health Physicians,Psychiatry-Adult Child & Adolescent
Kaiser Permanente 4700 Sunset,Francesca,Staiti,4700 W Sunset Blvd # 6,Los Angeles,CA,90027,Verified,-118.291815,34.098129,Offices Of Mental Health Physicians,Psychiatry-Adult Child & Adolescent
Kaiser Permanente 4700 Sunset,Paul M,Riskin,4700 W Sunset Blvd # 6,Los Angeles,CA,90027,Verified,-118.291815,34.098129,Offices Of Mental Health Physicians,Psychiatry-Adult Child & Adolescent
Kaiser Permanente 4700 Sunset,Rhiana R,Roque,4700 W Sunset Blvd # 6,Los Angeles,CA,90027,Verified,-118.291815,34.098129,Offices Of Mental Health Physicians,Psychiatry-Adult Child & Adolescent
Kaiser Permanente 4700 Sunset,Loretta,Howitt,4700 W Sunset Blvd # 6,Los Angeles,CA,90027,Verified,-118.291815,34.098129,Offices Of Mental Health Physicians,Psychiatry-Adult Child & Adolescent
Kaiser Permanente 4700 Sunset,Sara M,Bobak,4700 W Sunset Blvd # 6th,Los Angeles,CA,90027,Verified,-118.291815,34.098129,Offices Of Mental Health Physicians,Psychiatry-Adult Child & Adolescent
Kaiser Permanente A Orchard,Rhoda K,Hahn,9449 Imperial Hwy # 206,Downey,CA,90242,Verified,-118.12656,33.917115,Offices Of Mental Health Physicians,Psychiatry-Adult Child & Adolescent
Kaiser Permanente A Orchard,Anthony S,Tan,9449 Imperial Hwy # 206,Downey,CA,90242,Verified,-118.12656,33.917115,Offices Of Mental Health Physicians,Psychiatry-Adult Child & Adolescent
Kaiser Permanente Behavioral,Syed T,Rizvi,27201 Tourney Rd # 110,Valencia,CA,91355,Verified,-118.577371,34.416997,Offices Of Mental Health Physicians,Psychiatry-Adult Child & Adolescent
Kaiser Permanente Behavioral,Scott M,Steiglitz,27201 Tourney Rd # 110,Valencia,CA,91355,Verified,-118.577371,34.416997,Offices Of Mental Health Physicians,Psychiatry-Adult Child & Adolescent
Kaiser Permanente Clinic,Matthew,Becker,3420 Kenyon St # 2,San Diego,CA,92110,Verified,-117.213575,32.749326,Offices Of Mental Health Physicians,Psychiatry-Adult Child & Adolescent
Kaiser Permanente Clinic,Eduardo,Lopez-Gibson,3420 Kenyon St # 2,San Diego,CA,92110,Verified,-117.213575,32.749326,Offices Of Mental Health Physicians,Psychiatry-Adult Child & Adolescent
Kaiser Permanente Clinic,Elaine M,Yoshimoto,3420 Kenyon St # 2,San Diego,CA,92110,Verified,-117.213575,32.749326,Offices Of Mental Health Physicians,Psychiatry-Adult Child & Adolescent
Kaiser Permanente Clinic,Vanessa,Greenwood,3420 Kenyon St # 2,San Diego,CA,92110,Verified,-117.213575,32.749326,Offices Of Mental Health Physicians,Psychiatry-Adult Child & Adolescent
Kaiser Permanente Harbor,Nicole S,Sahl,3601 S Harbor Blvd # 100,Santa Ana,CA,92704,Verified,-117.91886,33.698452,Offices Of Mental Health Physicians,Psychiatry-Adult Child & Adolescent
Kaiser Permanente Lomita Med,Amy K,Walston,2081 Palos Verdes Dr N,Lomita,CA,90717,Verified,-118.316403,33.775988,Offices Of Mental Health Physicians,Psychiatry-Adult Child & Adolescent
Kaiser Permanente Lomita Med,,,2081 Palos Verdes Dr N,Lomita,CA,90717,Verified,-118.316403,33.775988,Offices Of Mental Health Physicians,Psychiatry-Adult Child & Adolescent
Kaiser Permanente Med Ctr,Kyra,Samson,4660 Palm Ave # A-2,San Diego,CA,92154,Verified,-117.034018,32.585909,Offices Of Mental Health Physicians,Psychiatry-Adult Child & Adolescent
Kaiser Permanente Med Ctr,James W,Gaudet,4660 Palm Ave # B-2,San Diego,CA,92154,Verified,-117.034018,32.585909,Offices Of Mental Health Physicians,Psychiatry-Adult Child & Adolescent
Kaiser Permanente Mental,Wendell M,Hino,765 W College St,Los Angeles,CA,90012,Verified,-118.243319,34.066829,Offices Of Mental Health Physicians,Psychiatry-Adult Child & Adolescent
Kaiser Permanente Mental,Nathalie M,Maullin,765 W College St,Los Angeles,CA,90012,Verified,-118.243319,34.066829,Offices Of Mental Health Physicians,Psychiatry-Adult Child & Adolescent
Kaiser Permanente Mental,Sally Lynn,Freitas,765 W College St,Los Angeles,CA,90012,Verified,-118.243319,34.066829,Offices Of Mental Health Physicians,Psychiatry-Adult Child & Adolescent
Kaiser Permanente Mental,,,765 W College St,Los Angeles,CA,90012,Verified,-118.243319,34.066829,Offices Of Mental Health Physicians,Psychiatry-Adult Child & Adolescent
Kaiser Permanente Mental,Vladimir,Olshanskiy,765 W College St,Los Angeles,CA,90012,Verified,-118.243319,34.066829,Offices Of Mental Health Physicians,Psychiatry-Adult Child & Adolescent
Kaiser Permanente Mental Hlth,Eli,Friedler,765 W College St,Los Angeles,CA,90012,Verified,-118.243173,34.066017,Offices Of Mental Health Physicians,Psychiatry-Adult Child & Adolescent
Kaiser Permanente Norwalk Ofc,James C,Lu,12501 Imperial Hwy # 400,Norwalk,CA,90650,Verified,-118.065572,33.918117,Offices Of Mental Health Physicians,Psychiatry-Adult Child & Adolescent
Kaiser Permanente Norwalk Ofc,Michael S,Hwang,12501 Imperial Hwy # 400,Norwalk,CA,90650,Verified,-118.065572,33.918117,Offices Of Mental Health Physicians,Psychiatry-Adult Child & Adolescent
Kaiser Permanente Otay Mesa,Robert N,Rashidi,4650 Palm Ave,San Diego,CA,92154,Verified,-117.034018,32.585909,Offices Of Mental Health Physicians,Psychiatry-Adult Child & Adolescent
Kaiser Permanente Otay Mesa,Gabriel,White,4650 Palm Ave,San Diego,CA,92154,Verified,-117.034018,32.585909,Offices Of Mental Health Physicians,Psychiatry-Adult Child & Adolescent
Kaiser Permanente Point Loma,Shahida,Parveen,3420 Kenyon St,San Diego,CA,92110,Verified,-117.213575,32.749326,Offices Of Mental Health Physicians,Psychiatry-Adult Child & Adolescent
Kaiser Permanente Point Loma,Jacob,Kuriakose,3420 Kenyon St,San Diego,CA,92110,Verified,-117.213575,32.749326,Offices Of Mental Health Physicians,Psychiatry-Adult Child & Adolescent
Kaiser Permanente Point Loma,Tuan-Anh,Nguyen,3420 Kenyon St,San Diego,CA,92110,Verified,-117.213575,32.749326,Offices Of Mental Health Physicians,Psychiatry-Adult Child & Adolescent
Kaiser Permanente Point Loma,Leonid,Markman,3420 Kenyon St,San Diego,CA,92110,Verified,-117.213575,32.749326,Offices Of Mental Health Physicians,Psychiatry-Adult Child & Adolescent
Kaiser Permanente Point Loma,Mohammad F,Siddiqui,3420 Kenyon St,San Diego,CA,92110,Verified,-117.213575,32.749326,Offices Of Mental Health Physicians,Psychiatry-Adult Child & Adolescent
Kaiser Permanente Point Loma,Fadi J,Nicolas,3420 Kenyon St # B,San Diego,CA,92110,Verified,-117.213575,32.749326,Offices Of Mental Health Physicians,Psychiatry-Adult Child & Adolescent
Kaiser Permanente Point Loma,Kimberly A,Fitzgerald,3420 Kenyon St # B,San Diego,CA,92110,Verified,-117.213575,32.749326,Offices Of Mental Health Physicians,Psychiatry-Adult Child & Adolescent
Kaiser Permanente Point Loma,Jennifer,Park,3420 Kenyon St # B-2,San Diego,CA,92110,Verified,-117.213575,32.749326,Offices Of Mental Health Physicians,Psychiatry-Adult Child & Adolescent
Kaiser Permanente Point Loma,Michael P,Wu,3420 Kenyon St # Of,San Diego,CA,92110,Verified,-117.213575,32.749326,Offices Of Mental Health Physicians,Psychiatry-Adult Child & Adolescent
Kaiser Permanente Psychiatry,James R,Parks,5105 W Goldleaf Cir # 1,Los Angeles,CA,90056,Verified,-118.364662,33.98936,Offices Of Mental Health Physicians,Psychiatry-Adult Child & Adolescent
Kaiser Permanente Psychiatry,Juan C,Zuberbuhler,5105 W Goldleaf Cir # 1,Los Angeles,CA,90056,Verified,-118.364662,33.98936,Offices Of Mental Health Physicians,Psychiatry-Adult Child & Adolescent
Kaiser Permanente Psychiatry,Emelita B,Talag,5105 W Goldleaf Cir # 1,Los Angeles,CA,90056,Verified,-118.364662,33.98936,Offices Of Mental Health Physicians,Psychiatry-Adult Child & Adolescent
Kaiser Permanente Psychiatry,Jenny M,Luu,5105 W Goldleaf Cir # 1,Los Angeles,CA,90056,Verified,-118.364662,33.98936,Offices Of Mental Health Physicians,Psychiatry-Adult Child & Adolescent
Kaiser Permanente Psychiatry,,,5105 W Goldleaf Cir # 1,Los Angeles,CA,90056,Verified,-118.364662,33.98936,Offices Of Mental Health Physicians,Psychiatry-Adult Child & Adolescent
